[{"label": "Universit\u00e9 de Gen\u00e8ve UNIGE, Pignon (GE) - Gen\u00e8ve", "lat": 46.194271087646484, "lon": 6.140400409698486, "objectclass": "TLM_NUTZUNGSAREAL", "Kategorie": "UH", "schoolshort": "UNIGE", "name": "Universit\u00e9 de Gen\u00e8ve - Uni Pignon", "quarter": "Jonction", "city": "Gen\u00e8ve", "address": "Boulevard du Pont-d'Arve, 1200, Gen\u00e8ve", "zipcode": "1200"}, {"label": "Universit\u00e9 de Gen\u00e8ve UNIGE, Ancienne \u00c9cole de M\u00e9decine (GE) - Gen\u00e8ve", "lat": 46.19590759277344, "lon": 6.136425971984863, "objectclass": "TLM_NUTZUNGSAREAL", "Kategorie": "UH", "schoolshort": "UNIGE", "name": "Unknown Amenity", "quarter": "Jonction", "city": "Gen\u00e8ve", "address": "Rue de l'Ecole-de-M\u00e9decine, 1205, Gen\u00e8ve", "zipcode": "1205"}, {"label": "Universit\u00e9 de Gen\u00e8ve, Valais Campus Sion (VS) - Sion", "lat": 46.22985076904297, "lon": 7.398563861846924, "objectclass": "TLM_NUTZUNGSAREAL", "Kategorie": "UH", "schoolshort": "UNIGE", "name": "Fondation universitaire Kurt B\u00f6sch", "quarter": "Unknown Quarter", "city": "Grimisuat", "address": "Chemin du Bosquet, 1950, ", "zipcode": "1950"}, {"label": "Universit\u00e9 de Gen\u00e8ve UNIGE, Sciences (GE) - Gen\u00e8ve", "lat": 46.19778823852539, "lon": 6.133457183837891, "objectclass": "TLM_NUTZUNGSAREAL", "Kategorie": "UH", "schoolshort": "UNIGE", "name": "D\u00e9partement de G\u00e9n\u00e9tique & Evolution (GenEV)", "quarter": "Jonction", "city": "Gen\u00e8ve", "address": "Boulevard D'Yvoy, 1205, Gen\u00e8ve", "zipcode": "1205"}, {"label": "Universit\u00e9 de Gen\u00e8ve UNIGE, Saint-Ours (GE) - Gen\u00e8ve", "lat": 46.1978759765625, "lon": 6.1443352699279785, "objectclass": "TLM_NUTZUNGSAREAL", "Kategorie": "UH", "schoolshort": "UNIGE", "name": "Unknown Amenity", "quarter": "Cit\u00e9", "city": "Gen\u00e8ve", "address": "Square de la Com\u00e9die, , Gen\u00e8ve", "zipcode": "Unknown Zipcode"}, {"label": "Universit\u00e9 de Gen\u00e8ve UNIGE, Observatoire (GE) - Versoix", "lat": 46.30844497680664, "lon": 6.133902072906494, "objectclass": "TLM_NUTZUNGSAREAL", "Kategorie": "UH", "schoolshort": "UNIGE", "name": "Unknown Amenity", "quarter": "Unknown Quarter", "city": "Chavannes-des-Bois", "address": "Chemin Pegasi, 1290, ", "zipcode": "1290"}, {"label": "Universit\u00e9 de Gen\u00e8ve UNIGE, Mara\u00eechers (GE) - Gen\u00e8ve", "lat": 46.19906997680664, "lon": 6.136384010314941, "objectclass": "TLM_NUTZUNGSAREAL", "Kategorie": "UH", "schoolshort": "UNIGE", "name": "Unknown Amenity", "quarter": "Jonction", "city": "Gen\u00e8ve", "address": "Rue des Mara\u00eechers, 1200, Gen\u00e8ve", "zipcode": "1200"}, {"label": "Universit\u00e9 de Gen\u00e8ve UNIGE, Ecogia (GE) - Versoix", "lat": 46.291168212890625, "lon": 6.149912357330322, "objectclass": "TLM_NUTZUNGSAREAL", "Kategorie": "UH", "schoolshort": "UNIGE", "name": "Unknown Amenity", "quarter": "Unknown Quarter", "city": "Chavannes-des-Bois", "address": "Chemin d'Ecogia, 1290, ", "zipcode": "1290"}, {"label": "Universit\u00e9 de Gen\u00e8ve UNIGE (GE) - Gen\u00e8ve", "lat": 46.22184371948242, "lon": 6.147281169891357, "objectclass": "TLM_NUTZUNGSAREAL", "Kategorie": "UH", "schoolshort": "UNIGE", "name": "Hall", "quarter": "P\u00e2quis", "city": "Gen\u00e8ve", "address": "Chemin des Mines, 1202, Gen\u00e8ve", "zipcode": "1202"}, {"label": "Universit\u00e9 de Gen\u00e8ve UNIGE, Landolt/Mirabeau (GE) - Gen\u00e8ve", "lat": 46.199031829833984, "lon": 6.143355846405029, "objectclass": "TLM_NUTZUNGSAREAL", "Kategorie": "UH", "schoolshort": "UNIGE", "name": "Unknown Amenity", "quarter": "Cit\u00e9", "city": "Gen\u00e8ve", "address": "Rue De-Candolle, 1205, Gen\u00e8ve", "zipcode": "1205"}, {"label": "Universit\u00e9 de Gen\u00e8ve UNIGE, Com\u00e9die (GE) - Gen\u00e8ve", "lat": 46.19702911376953, "lon": 6.144376277923584, "objectclass": "TLM_NUTZUNGSAREAL", "Kategorie": "UH", "schoolshort": "UNIGE", "name": "Le Philanthrope", "quarter": "Cit\u00e9", "city": "Gen\u00e8ve", "address": "Boulevard des Philosophes, 1205, Gen\u00e8ve", "zipcode": "1205"}, {"label": "Universit\u00e9 de Gen\u00e8ve UNIGE, Battelle (GE) - Carouge (GE)", "lat": 46.17578125, "lon": 6.139766693115234, "objectclass": "TLM_NUTZUNGSAREAL", "Kategorie": "UH", "schoolshort": "UNIGE", "name": "Universit\u00e9 Battelle", "quarter": "La Praille", "city": "Veyrier", "address": "Route de Drize, 1234, ", "zipcode": "1234"}, {"label": "Universit\u00e9 de Gen\u00e8ve UNIGE, Dufour (GE) - Gen\u00e8ve", "lat": 46.19963455200195, "lon": 6.142203330993652, "objectclass": "TLM_NUTZUNGSAREAL", "Kategorie": "UH", "schoolshort": "UNIGE", "name": "Universit\u00e9 de Gen\u00e8ve - Uni-Dufour", "quarter": "Cit\u00e9", "city": "Gen\u00e8ve", "address": "Square Horace-B\u00e9n\u00e9dict-de-Saussure, 1205, Gen\u00e8ve", "zipcode": "1205"}, {"label": "Universit\u00e9 de Gen\u00e8ve UNIGE, Philosophes (GE) - Gen\u00e8ve", "lat": 46.196205139160156, "lon": 6.1472487449646, "objectclass": "TLM_NUTZUNGSAREAL", "Kategorie": "UH", "schoolshort": "UNIGE", "name": "Unknown Amenity", "quarter": "Cit\u00e9", "city": "Gen\u00e8ve", "address": "Boulevard des Philosophes, 1205, Gen\u00e8ve", "zipcode": "1205"}, {"label": "Universit\u00e9 de Gen\u00e8ve UNIGE, Carl Vogt (GE) - Gen\u00e8ve", "lat": 46.19731140136719, "lon": 6.136660575866699, "objectclass": "TLM_NUTZUNGSAREAL", "Kategorie": "UH", "schoolshort": "UNIGE", "name": "Universit\u00e9 de Gen\u00e8ve", "quarter": "Jonction", "city": "Gen\u00e8ve", "address": "Boulevard Carl-Vogt, 1200, Gen\u00e8ve", "zipcode": "1200"}, {"label": "Universit\u00e9 de Gen\u00e8ve UNIGE, S.I.P. (GE) - Gen\u00e8ve", "lat": 46.19923400878906, "lon": 6.138139724731445, "objectclass": "TLM_NUTZUNGSAREAL", "Kategorie": "UH", "schoolshort": "UNIGE", "name": "Unknown Amenity", "quarter": "Jonction", "city": "Gen\u00e8ve", "address": "Rue Gourgas, 1205, Gen\u00e8ve", "zipcode": "1205"}, {"label": "Universit\u00e9 de Fribourg UNIFR, Rue Pierre-Aeby (FR) - Fribourg", "lat": 46.80723190307617, "lon": 7.1600847244262695, "objectclass": "TLM_NUTZUNGSAREAL", "Kategorie": "UH", "schoolshort": "UNIFRI", "name": "Institut du monde antique et byzantin", "quarter": "P\u00e9rolles", "city": "Fribourg", "address": "Rue Pierre-Aeby, 1700, ", "zipcode": "1700"}, {"label": "Universit\u00e9 de Fribourg UNIFR, Route des Bonnesfontaines (FR) - Fribourg", "lat": 46.812294006347656, "lon": 7.1461310386657715, "objectclass": "TLM_NUTZUNGSAREAL", "Kategorie": "UH", "schoolshort": "UNIFRI", "name": "Universit\u00e9 Fribourg - Sciences sociales et politiques sociales et travail social", "quarter": "Unknown Quarter", "city": "Granges-Paccot", "address": "Route des Bonnesfontaines, 1763, ", "zipcode": "1763"}, {"label": "Universit\u00e9 de Fribourg UNIFR, Site Beauregard (FR) - Fribourg", "lat": 46.80237579345703, "lon": 7.146145820617676, "objectclass": "TLM_NUTZUNGSAREAL", "Kategorie": "UH", "schoolshort": "UNIFRI", "name": "Unknown Amenity", "quarter": "P\u00e9rolles", "city": "Fribourg", "address": "Avenue Beauregard, 1700, ", "zipcode": "1700"}, {"label": "Universit\u00e9 de Fribourg UNIFR, Site R\u00e9gina Mundi (FR) - Fribourg", "lat": 46.796260833740234, "lon": 7.1565327644348145, "objectclass": "TLM_NUTZUNGSAREAL", "Kategorie": "UH", "schoolshort": "UNIFRI", "name": "Unknown Amenity", "quarter": "P\u00e9rolles", "city": "Fribourg", "address": "Rue Petermann-Aymon-de-Faucigny, 1700, ", "zipcode": "1700"}, {"label": "Universit\u00e9 de Fribourg UNIFR, Rue du Criblet (FR) - Fribourg", "lat": 46.805023193359375, "lon": 7.154306411743164, "objectclass": "TLM_NUTZUNGSAREAL", "Kategorie": "UH", "schoolshort": "UNIFRI", "name": "Unknown Amenity", "quarter": "P\u00e9rolles", "city": "Fribourg", "address": "Passage 23, 1700, ", "zipcode": "1700"}, {"label": "Universit\u00e9 de Fribourg UNIFR, Site Mis\u00e9ricorde (FR) - Fribourg", "lat": 46.80753707885742, "lon": 7.153051376342773, "objectclass": "TLM_NUTZUNGSAREAL", "Kategorie": "UH", "schoolshort": "UNIFRI", "name": "Unknown Amenity", "quarter": "P\u00e9rolles", "city": "Fribourg", "address": "Rue de Rome, 1700, ", "zipcode": "1700"}, {"label": "Universit\u00e9 de Fribourg UNIFR, Site Arsenaux (FR) - Fribourg", "lat": 46.7962532043457, "lon": 7.152294158935547, "objectclass": "TLM_NUTZUNGSAREAL", "Kategorie": "UH", "schoolshort": "UNIFRI", "name": "Unknown Amenity", "quarter": "P\u00e9rolles", "city": "Fribourg", "address": "Route des Arsenaux, 1700, ", "zipcode": "1700"}, {"label": "Universit\u00e9 de Fribourg UNIFR, Rue de Morat (FR) - Fribourg", "lat": 46.80936813354492, "lon": 7.1590352058410645, "objectclass": "TLM_NUTZUNGSAREAL", "Kategorie": "UH", "schoolshort": "UNIFRI", "name": "Unknown Amenity", "quarter": "P\u00e9rolles", "city": "Fribourg", "address": "Rue de Morat / Murtengasse, 1700, ", "zipcode": "1700"}, {"label": "Universit\u00e9 de Fribourg UNIFR, Site P\u00e9rolles (FR) - Fribourg", "lat": 46.793785095214844, "lon": 7.159756183624268, "objectclass": "TLM_NUTZUNGSAREAL", "Kategorie": "UH", "schoolshort": "UNIFRI", "name": "Unknown Amenity", "quarter": "P\u00e9rolles", "city": "Fribourg", "address": "Boulevard de P\u00e9rolles, 1700, ", "zipcode": "1700"}, {"label": "Universit\u00e9 de Lausanne UNIL, Facult\u00e9 des sciences sociales et politiques (VD) - Lausanne", "lat": 46.516544342041016, "lon": 6.637124538421631, "objectclass": "TLM_NUTZUNGSAREAL", "Kategorie": "UH", "schoolshort": "UNIL", "name": "Unknown Amenity", "quarter": "Unknown Quarter", "city": "Lausanne", "address": "Avenue de la Gare, 1003, Lausanne", "zipcode": "1003"}, {"label": "Universit\u00e9 de Lausanne, site de Sion (VS) - Sion", "lat": 46.22985076904297, "lon": 7.398563861846924, "objectclass": "TLM_NUTZUNGSAREAL", "Kategorie": "UH", "schoolshort": "UNIL", "name": "Fondation universitaire Kurt B\u00f6sch", "quarter": "Unknown Quarter", "city": "Grimisuat", "address": "Chemin du Bosquet, 1950, ", "zipcode": "1950"}, {"label": "Universit\u00e9 de Lausanne UNIL, Site Epalinges (VD) - Epalinges", "lat": 46.54258346557617, "lon": 6.6608171463012695, "objectclass": "TLM_NUTZUNGSAREAL", "Kategorie": "UH", "schoolshort": "UNIL", "name": "Unknown Amenity", "quarter": "Unknown Quarter", "city": "Epalinges", "address": "Route de la Corniche, 1066, ", "zipcode": "1066"}, {"label": "Universit\u00e9 de Lausanne UNIL, Site Bugnon CHUV (VD) - Lausanne", "lat": 46.52516555786133, "lon": 6.639979362487793, "objectclass": "TLM_NUTZUNGSAREAL", "Kategorie": "UH", "schoolshort": "UNIL", "name": "Centre hospitalier universitaire vaudois", "quarter": "Unknown Quarter", "city": "Lausanne", "address": "Rue du Bugnon, 1011, Lausanne", "zipcode": "1011"}, {"label": "Universit\u00e9 de Lausanne UNIL, H\u00f4pital ophtalmique Jules-Gonin (VD) - Lausanne", "lat": 46.52456283569336, "lon": 6.622732639312744, "objectclass": "TLM_NUTZUNGSAREAL", "Kategorie": "UH", "schoolshort": "UNIL", "name": "Asile des aveugles Fondation H\u00f4pital ophtalmique Jules-Gonin", "quarter": "Unknown Quarter", "city": "Lausanne", "address": "Avenue de France, 1004, Lausanne", "zipcode": "1004"}, {"label": "Universit\u00e9 de Lausanne UNIL, Clinique psychiatrique (VD) - Prilly", "lat": 46.547019958496094, "lon": 6.607577323913574, "objectclass": "TLM_NUTZUNGSAREAL", "Kategorie": "UH", "schoolshort": "UNIL", "name": "H\u00f4pital de Cery", "quarter": "Unknown Quarter", "city": "Jouxtens-M\u00e9zery", "address": "Route de Cery, 1008, ", "zipcode": "1008"}, {"label": "Universit\u00e9 de Lausanne UNIL, Site Dorigny (VD) - Chavannes-pr\u00e8s-Renens", "lat": 46.526493072509766, "lon": 6.579483985900879, "objectclass": "TLM_NUTZUNGSAREAL", "Kategorie": "UH", "schoolshort": "UNIL", "name": "Universit\u00e9 de Lausanne", "quarter": "Unknown Quarter", "city": "Chavannes-pr\u00e8s-Renens", "address": "Route de Praz-V\u00e9guey, 1022, ", "zipcode": "1022"}, {"label": "Universit\u00e9 de Lausanne UNIL, Site Epalinges (VD) - Lausanne,Epalinges", "lat": 46.54163360595703, "lon": 6.658852577209473, "objectclass": "TLM_NUTZUNGSAREAL", "Kategorie": "UH", "schoolshort": "UNIL", "name": "Unknown Amenity", "quarter": "Unknown Quarter", "city": "Lausanne", "address": "Route de la Corniche, 1010, Lausanne", "zipcode": "1010"}, {"label": "Universit\u00e4t (BS) - Basel", "lat": 47.558231353759766, "lon": 7.583456039428711, "objectclass": "TLM_NUTZUNGSAREAL", "Kategorie": "UH", "schoolshort": "UNIBAS", "name": "Universit\u00e4t Basel", "quarter": "Vorst\u00e4dte", "city": "Basel", "address": "Picassoplatz, 4010, Basel", "zipcode": "4010"}, {"label": "Universit\u00e4t Basel, Standort Mattenstrasse (BS) - Basel", "lat": 47.56634521484375, "lon": 7.601956367492676, "objectclass": "TLM_NUTZUNGSAREAL", "Kategorie": "UH", "schoolshort": "UNIBAS", "name": "Unknown Amenity", "quarter": "Rosental", "city": "Basel", "address": "Mattenstrasse, 4058, Basel", "zipcode": "4058"}, {"label": "Universit\u00e4t Basel, Standort Bernoullistrasse (BS) - Basel", "lat": 47.56000900268555, "lon": 7.581943035125732, "objectclass": "TLM_NUTZUNGSAREAL", "Kategorie": "UH", "schoolshort": "UNIBAS", "name": "Universit\u00e4t Basel", "quarter": "Vorst\u00e4dte", "city": "Basel", "address": "Picassoplatz, 4010, Basel", "zipcode": "4010"}, {"label": "Universit\u00e4t Basel, Standort Hirschg\u00e4sslein (BS) - Basel", "lat": 47.55070877075195, "lon": 7.592851161956787, "objectclass": "TLM_NUTZUNGSAREAL", "Kategorie": "UH", "schoolshort": "UNIBAS", "name": "Unknown Amenity", "quarter": "Vorst\u00e4dte", "city": "Basel", "address": "Hirschg\u00e4sslein, 4051, Basel", "zipcode": "4051"}, {"label": "Universit\u00e4t Basel, Standort Holbeinstrasse (BS) - Basel", "lat": 47.554603576660156, "lon": 7.583991527557373, "objectclass": "TLM_NUTZUNGSAREAL", "Kategorie": "UH", "schoolshort": "UNIBAS", "name": "Unknown Amenity", "quarter": "Am Ring", "city": "Basel", "address": "Holbeinstrasse, 4051, Basel", "zipcode": "4051"}, {"label": "Universit\u00e4t Basel, Standort Spalenring (BS) - Basel", "lat": 47.55495834350586, "lon": 7.576392650604248, "objectclass": "TLM_NUTZUNGSAREAL", "Kategorie": "UH", "schoolshort": "UNIBAS", "name": "Unknown Amenity", "quarter": "Am Ring", "city": "Basel", "address": "Spalenring, 4055, Basel", "zipcode": "4055"}, {"label": "Universit\u00e4t Basel, Standort Steinengraben (BS) - Basel", "lat": 47.55427551269531, "lon": 7.585071086883545, "objectclass": "TLM_NUTZUNGSAREAL", "Kategorie": "UH", "schoolshort": "UNIBAS", "name": "Unknown Amenity", "quarter": "Am Ring", "city": "Basel", "address": "Steinengraben, 4051, Basel", "zipcode": "4051"}, {"label": "Universit\u00e4t Basel, Standort St.Johanns-Vorstadt (BS) - Basel", "lat": 47.56266784667969, "lon": 7.585416793823242, "objectclass": "TLM_NUTZUNGSAREAL", "Kategorie": "UH", "schoolshort": "UNIBAS", "name": "Unknown Amenity", "quarter": "Vorst\u00e4dte", "city": "Basel", "address": "St. Johanns-Vorstadt, 4031, Basel", "zipcode": "4031"}, {"label": "Universit\u00e4t Basel, Standort Gellertstrasse (BS) - Basel", "lat": 47.551605224609375, "lon": 7.612016677856445, "objectclass": "TLM_NUTZUNGSAREAL", "Kategorie": "UH", "schoolshort": "UNIBAS", "name": "Unknown Amenity", "quarter": "St. Alban", "city": "Basel", "address": "Gellertstrasse, 4052, Basel", "zipcode": "4052"}, {"label": "Universit\u00e4t Basel, Standort Sch\u00f6nbeinstrasse (BS) - Basel", "lat": 47.56061935424805, "lon": 7.581602096557617, "objectclass": "TLM_NUTZUNGSAREAL", "Kategorie": "UH", "schoolshort": "UNIBAS", "name": "Institut f\u00fcr Pathologie Universit\u00e4tsspital Basel", "quarter": "Vorst\u00e4dte", "city": "Basel", "address": "Sch\u00f6nbeinstrasse, 4031, Basel", "zipcode": "4031"}, {"label": "Universit\u00e4t Basel, Standort Rheinsprung (BS) - Basel", "lat": 47.55882263183594, "lon": 7.589489459991455, "objectclass": "TLM_NUTZUNGSAREAL", "Kategorie": "UH", "schoolshort": "UNIBAS", "name": "Unknown Amenity", "quarter": "Altstadt Grossbasel", "city": "Basel", "address": "Rheinsprung, 4000, Basel", "zipcode": "4000"}, {"label": "Universit\u00e4t Basel, Standort Peter Merian-Weg (BS) - Basel", "lat": 47.54524230957031, "lon": 7.59752893447876, "objectclass": "TLM_NUTZUNGSAREAL", "Kategorie": "UH", "schoolshort": "UNIBAS", "name": "Wirtschaftswissenschaftliche Fakult\u00e4t", "quarter": "St. Alban", "city": "Basel", "address": "Peter Merian-Weg, 4053, Basel", "zipcode": "4053"}, {"label": "Universit\u00e4t Basel, Standort St.Alban-Graben (BS) - Basel", "lat": 47.55388641357422, "lon": 7.593663215637207, "objectclass": "TLM_NUTZUNGSAREAL", "Kategorie": "UH", "schoolshort": "UNIBAS", "name": "Unknown Amenity", "quarter": "Vorst\u00e4dte", "city": "Basel", "address": "St. Alban-Graben, 4051, Basel", "zipcode": "4051"}, {"label": "Universit\u00e4t Basel, Standort Klingelbergstrasse (BS) - Basel", "lat": 47.56162643432617, "lon": 7.580340385437012, "objectclass": "TLM_NUTZUNGSAREAL", "Kategorie": "UH", "schoolshort": "UNIBAS", "name": "Unknown Amenity", "quarter": "Am Ring", "city": "Basel", "address": "Klingelbergstrasse, 4056, Basel", "zipcode": "4056"}, {"label": "Universit\u00e4t Basel, Standort Petersplatz (BS) - Basel", "lat": 47.558692932128906, "lon": 7.582340240478516, "objectclass": "TLM_NUTZUNGSAREAL", "Kategorie": "UH", "schoolshort": "UNIBAS", "name": "Universit\u00e4t Basel", "quarter": "Vorst\u00e4dte", "city": "Basel", "address": "Picassoplatz, 4010, Basel", "zipcode": "4010"}, {"label": "Universit\u00e4t Basel, Standort Petersgraben (BS) - Basel", "lat": 47.56101989746094, "lon": 7.5846686363220215, "objectclass": "TLM_NUTZUNGSAREAL", "Kategorie": "UH", "schoolshort": "UNIBAS", "name": "Universit\u00e4tsspital Basel", "quarter": "Vorst\u00e4dte", "city": "Basel", "address": "Spitalstrasse, 4031, Basel", "zipcode": "4031"}, {"label": "Universit\u00e4t Basel, Standort Petersgraben (BS) - Basel", "lat": 47.55906677246094, "lon": 7.584677696228027, "objectclass": "TLM_NUTZUNGSAREAL", "Kategorie": "UH", "schoolshort": "UNIBAS", "name": "Unknown Amenity", "quarter": "Altstadt Grossbasel", "city": "Basel", "address": "Peterskirchplatz, 4051, Basel", "zipcode": "4051"}, {"label": "Universit\u00e4t Basel, Standort Mittlere Strasse (BS) - Basel", "lat": 47.56243133544922, "lon": 7.576293468475342, "objectclass": "TLM_NUTZUNGSAREAL", "Kategorie": "UH", "schoolshort": "UNIBAS", "name": "Augenklinik des Universit\u00e4tsspitals Basel", "quarter": "Am Ring", "city": "Basel", "address": "Mittlere Strasse, 4031, Basel", "zipcode": "4031"}, {"label": "Universit\u00e4t Basel, Standort Heuberg (BS) - Basel", "lat": 47.55576705932617, "lon": 7.58766508102417, "objectclass": "TLM_NUTZUNGSAREAL", "Kategorie": "UH", "schoolshort": "UNIBAS", "name": "Unknown Amenity", "quarter": "Altstadt Grossbasel", "city": "Basel", "address": "Heuberg, 4051, Basel", "zipcode": "4051"}, {"label": "Universit\u00e4t Basel, Standort Rheinsprung (BS) - Basel", "lat": 47.558189392089844, "lon": 7.590259075164795, "objectclass": "TLM_NUTZUNGSAREAL", "Kategorie": "UH", "schoolshort": "UNIBAS", "name": "Unknown Amenity", "quarter": "Altstadt Grossbasel", "city": "Basel", "address": "Rheinsprung, 4051, Basel", "zipcode": "4051"}, {"label": "Universit\u00e4t Basel, Standort Schanzenstrasse (BS) - Basel", "lat": 47.562171936035156, "lon": 7.581483840942383, "objectclass": "TLM_NUTZUNGSAREAL", "Kategorie": "UH", "schoolshort": "UNIBAS", "name": "Unknown Amenity", "quarter": "Am Ring", "city": "Basel", "address": "Schanzenstrasse, 4056, Basel", "zipcode": "4056"}, {"label": "Universit\u00e4t Basel, Standort Gewerbestrasse (BL) - Allschwil", "lat": 47.55746841430664, "lon": 7.544740676879883, "objectclass": "TLM_NUTZUNGSAREAL", "Kategorie": "UH", "schoolshort": "UNIBAS", "name": "Invento", "quarter": "Unknown Quarter", "city": "Allschwil", "address": "Gewerbestrasse, 4123, ", "zipcode": "4123"}, {"label": "Universit\u00e4t Basel, Standort M\u00fcnsterplatz (BS) - Basel", "lat": 47.5569953918457, "lon": 7.590781211853027, "objectclass": "TLM_NUTZUNGSAREAL", "Kategorie": "UH", "schoolshort": "UNIBAS", "name": "Unknown Amenity", "quarter": "Altstadt Grossbasel", "city": "Basel", "address": "M\u00fcnsterplatz, 4051, Basel", "zipcode": "4051"}, {"label": "Universit\u00e4t Basel, Standort Maiengasse (BS) - Basel", "lat": 47.56112289428711, "lon": 7.57801628112793, "objectclass": "TLM_NUTZUNGSAREAL", "Kategorie": "UH", "schoolshort": "UNIBAS", "name": "Unknown Amenity", "quarter": "Am Ring", "city": "Basel", "address": "Maiengasse, 4056, Basel", "zipcode": "4056"}, {"label": "Universit\u00e4t Basel, Standort Sch\u00f6nbeinstrasse (BS) - Basel", "lat": 47.55903625488281, "lon": 7.581610202789307, "objectclass": "TLM_NUTZUNGSAREAL", "Kategorie": "UH", "schoolshort": "UNIBAS", "name": "Universit\u00e4t Basel", "quarter": "Vorst\u00e4dte", "city": "Basel", "address": "Picassoplatz, 4010, Basel", "zipcode": "4010"}, {"label": "Universit\u00e4t Basel, Standort Hebelstrasse (BS) - Basel", "lat": 47.55998611450195, "lon": 7.584112167358398, "objectclass": "TLM_NUTZUNGSAREAL", "Kategorie": "UH", "schoolshort": "UNIBAS", "name": "Universit\u00e4t Basel", "quarter": "Vorst\u00e4dte", "city": "Basel", "address": "Picassoplatz, 4010, Basel", "zipcode": "4010"}, {"label": "Universit\u00e4t Basel, Standort Pestalozzistrasse (BS) - Basel", "lat": 47.56483459472656, "lon": 7.579587459564209, "objectclass": "TLM_NUTZUNGSAREAL", "Kategorie": "UH", "schoolshort": "UNIBAS", "name": "Universit\u00e4t Basel", "quarter": "Vorst\u00e4dte", "city": "Basel", "address": "Picassoplatz, 4010, Basel", "zipcode": "4010"}, {"label": "Universit\u00e4t Basel, Standort Riehenstrasse (BS) - Basel", "lat": 47.56443786621094, "lon": 7.606314182281494, "objectclass": "TLM_NUTZUNGSAREAL", "Kategorie": "UH", "schoolshort": "UNIBAS", "name": "Unknown Amenity", "quarter": "Wettstein", "city": "Basel", "address": "Zugang Sandgrube S\u00fcd, 4058, Basel", "zipcode": "4058"}, {"label": "Universit\u00e4t Basel, Standort Klingelbergstrasse (BS) - Basel", "lat": 47.564697265625, "lon": 7.5790019035339355, "objectclass": "TLM_NUTZUNGSAREAL", "Kategorie": "UH", "schoolshort": "UNIBAS", "name": "Universit\u00e4t Basel", "quarter": "Vorst\u00e4dte", "city": "Basel", "address": "Picassoplatz, 4010, Basel", "zipcode": "4010"}, {"label": "Universit\u00e4t Basel, Standort Spitalstrasse (BS) - Basel", "lat": 47.56391525268555, "lon": 7.58121919631958, "objectclass": "TLM_NUTZUNGSAREAL", "Kategorie": "UH", "schoolshort": "UNIBAS", "name": "Universit\u00e4t Basel", "quarter": "Vorst\u00e4dte", "city": "Basel", "address": "Picassoplatz, 4010, Basel", "zipcode": "4010"}, {"label": "Universit\u00e4t Basel, Standort Nadelberg (BS) - Basel", "lat": 47.55842208862305, "lon": 7.585227012634277, "objectclass": "TLM_NUTZUNGSAREAL", "Kategorie": "UH", "schoolshort": "UNIBAS", "name": "Hof-Brunnen", "quarter": "Altstadt Grossbasel", "city": "Basel", "address": "Nadelberg, 4051, Basel", "zipcode": "4051"}, {"label": "Universit\u00e4t Basel, Standort St. Johanns-Ring (BS) - Basel", "lat": 47.56534194946289, "lon": 7.5794782638549805, "objectclass": "TLM_NUTZUNGSAREAL", "Kategorie": "UH", "schoolshort": "UNIBAS", "name": "Universit\u00e4t Basel", "quarter": "Vorst\u00e4dte", "city": "Basel", "address": "Picassoplatz, 4010, Basel", "zipcode": "4010"}, {"label": "Universit\u00e4t Basel, Standort Spiegelgasse (BS) - Basel", "lat": 47.5601921081543, "lon": 7.587279796600342, "objectclass": "TLM_NUTZUNGSAREAL", "Kategorie": "UH", "schoolshort": "UNIBAS", "name": "Universit\u00e4t Basel", "quarter": "Vorst\u00e4dte", "city": "Basel", "address": "Picassoplatz, 4010, Basel", "zipcode": "4010"}, {"label": "Universit\u00e4t Basel, Standort Toteng\u00e4sslein (BS) - Basel", "lat": 47.55858612060547, "lon": 7.586130142211914, "objectclass": "TLM_NUTZUNGSAREAL", "Kategorie": "UH", "schoolshort": "UNIBAS", "name": "Unknown Amenity", "quarter": "Altstadt Grossbasel", "city": "Basel", "address": "Toteng\u00e4sslein, 4051, Basel", "zipcode": "4051"}, {"label": "Universit\u00e4t Basel, Standort Wilhelm Klein-Strasse (BS) - Basel", "lat": 47.571590423583984, "lon": 7.565068244934082, "objectclass": "TLM_NUTZUNGSAREAL", "Kategorie": "UH", "schoolshort": "UNIBAS", "name": "Universit\u00e4re Psychiatrische Kliniken Basel", "quarter": "St. Johann", "city": "Basel", "address": "Wilhelm Klein-Strasse, 4012, Basel", "zipcode": "4012"}, {"label": "Universit\u00e4t Basel, Standort Burgfelderstrasse (BS) - Basel", "lat": 47.56471633911133, "lon": 7.565530776977539, "objectclass": "TLM_NUTZUNGSAREAL", "Kategorie": "UH", "schoolshort": "UNIBAS", "name": "Felix-Platter-Spital", "quarter": "St. Johann", "city": "Basel", "address": "Dammerkirchstrasse, 4012, Basel", "zipcode": "4012"}, {"label": "Universit\u00e4t Basel, Standort Leimenstrasse (BS) - Basel", "lat": 47.5533332824707, "lon": 7.581186771392822, "objectclass": "TLM_NUTZUNGSAREAL", "Kategorie": "UH", "schoolshort": "UNIBAS", "name": "Unknown Amenity", "quarter": "Am Ring", "city": "Basel", "address": "Leimenstrasse, 4051, Basel", "zipcode": "4051"}, {"label": "Universit\u00e4t Basel, Standort Hebelstrasse (BS) - Basel", "lat": 47.561126708984375, "lon": 7.582394123077393, "objectclass": "TLM_NUTZUNGSAREAL", "Kategorie": "UH", "schoolshort": "UNIBAS", "name": "Unknown Amenity", "quarter": "Vorst\u00e4dte", "city": "Basel", "address": "Hebelstrasse, 4056, Basel", "zipcode": "4056"}, {"label": "Universit\u00e4t Basel, Standort Birmannsgasse (BS) - Basel", "lat": 47.55849838256836, "lon": 7.578746318817139, "objectclass": "TLM_NUTZUNGSAREAL", "Kategorie": "UH", "schoolshort": "UNIBAS", "name": "Unknown Amenity", "quarter": "Am Ring", "city": "Basel", "address": "Birmannsgasse, 4055, Basel", "zipcode": "4055"}, {"label": "Universit\u00e4t Basel, Standort Missionsstrasse (BS) - Basel", "lat": 47.56155776977539, "lon": 7.5756611824035645, "objectclass": "TLM_NUTZUNGSAREAL", "Kategorie": "UH", "schoolshort": "UNIBAS", "name": "Unknown Amenity", "quarter": "Am Ring", "city": "Basel", "address": "Missionsstrasse, 4055, Basel", "zipcode": "4055"}, {"label": "Ecole polytechnique f\u00e9d\u00e9rale de Lausanne EPFL (NE) - Neuch\u00e2tel", "lat": 46.99785614013672, "lon": 6.945991516113281, "objectclass": "TLM_NUTZUNGSAREAL", "Kategorie": "UH", "schoolshort": "EPFL", "name": "Unknown Amenity", "quarter": "Unknown Quarter", "city": "Milvignes", "address": "Rue de la Maladi\u00e8re, 2000, ", "zipcode": "2000"}, {"label": "Ecole polytechnique f\u00e9d\u00e9rale de Lausanne EPFL (VD) - Ecublens (VD)", "lat": 46.52412033081055, "lon": 6.565562725067139, "objectclass": "TLM_NUTZUNGSAREAL", "Kategorie": "UH", "schoolshort": "EPFL", "name": "Unknown Amenity", "quarter": "Unknown Quarter", "city": "Ecublens (VD)", "address": "Chemin des Triaudes, 1024, ", "zipcode": "1024"}, {"label": "Ecole polytechnique f\u00e9d\u00e9rale de Lausanne EPFL (VD) - Saint-Sulpice (VD),Ecublens (VD)", "lat": 46.516510009765625, "lon": 6.565594673156738, "objectclass": "TLM_NUTZUNGSAREAL", "Kategorie": "UH", "schoolshort": "EPFL", "name": "Unknown Amenity", "quarter": "Unknown Quarter", "city": "Saint-Sulpice (VD)", "address": "Route Cantonale, 1025, ", "zipcode": "1025"}, {"label": "Ecole polytechnique f\u00e9d\u00e9rale de Lausanne EPFL (GE) - Gen\u00e8ve", "lat": 46.22184371948242, "lon": 6.147281169891357, "objectclass": "TLM_NUTZUNGSAREAL", "Kategorie": "UH", "schoolshort": "EPFL", "name": "Hall", "quarter": "P\u00e2quis", "city": "Gen\u00e8ve", "address": "Chemin des Mines, 1202, Gen\u00e8ve", "zipcode": "1202"}, {"label": "Ecole polytechnique f\u00e9d\u00e9rale de Lausanne EPFL, Laboratoire B\u00e2le (laba) (BS) - Basel", "lat": 47.56303405761719, "lon": 7.584393501281738, "objectclass": "TLM_NUTZUNGSAREAL", "Kategorie": "UH", "schoolshort": "EPFL", "name": "Brasserie Hugo", "quarter": "Vorst\u00e4dte", "city": "Basel", "address": "St. Johanns-Vorstadt, 4031, Basel", "zipcode": "4031"}, {"label": "Ecole polytechnique f\u00e9d\u00e9rale de Lausanne EPFL, Campus Sion (VS) - Sion", "lat": 46.2269172668457, "lon": 7.361345291137695, "objectclass": "TLM_NUTZUNGSAREAL", "Kategorie": "UH", "schoolshort": "EPFL", "name": "EPFL Valais Wallis", "quarter": "Unknown Quarter", "city": "Grimisuat", "address": "Rue de l'Industrie, 1950, ", "zipcode": "1950"}, {"label": "Ecole polytechnique f\u00e9d\u00e9rale de Lausanne EPFL (VD) - Ecublens (VD)", "lat": 46.522037506103516, "lon": 6.571329116821289, "objectclass": "TLM_NUTZUNGSAREAL", "Kategorie": "UH", "schoolshort": "EPFL", "name": "Unknown Amenity", "quarter": "Unknown Quarter", "city": "Chavannes-pr\u00e8s-Renens", "address": "Route de la Sorge, 1015, ", "zipcode": "1015"}, {"label": "Eidgen\u00f6ssische Technische Hochschule Z\u00fcrich ETHZ, Standort Schwerzenbach (ZH) - Schwerzenbach", "lat": 47.38469314575195, "lon": 8.655211448669434, "objectclass": "TLM_NUTZUNGSAREAL", "Kategorie": "UH", "schoolshort": "ETHZ", "name": "ETH SLA", "quarter": "Unknown Quarter", "city": "D\u00fcbendorf", "address": "Schorenstrasse, 8603, ", "zipcode": "8603"}, {"label": "Eidgen\u00f6ssische Technische Hochschule Z\u00fcrich ETHZ, Standort Oerlikon (ZH) - Z\u00fcrich", "lat": 47.417388916015625, "lon": 8.539772033691406, "objectclass": "TLM_NUTZUNGSAREAL", "Kategorie": "UH", "schoolshort": "ETHZ", "name": "Unknown Amenity", "quarter": "Seebach", "city": "Z\u00fcrich", "address": "Neunbrunnenstrasse, 8050, Z\u00fcrich", "zipcode": "8050"}, {"label": "Eidgen\u00f6ssische Technische Hochschule Z\u00fcrich ETHZ, Standort Balgrist (ZH) - Z\u00fcrich", "lat": 47.35240936279297, "lon": 8.574235916137695, "objectclass": "TLM_NUTZUNGSAREAL", "Kategorie": "UH", "schoolshort": "ETHZ", "name": "Balgrist Campus", "quarter": "Kreis 8", "city": "Z\u00fcrich", "address": "Lengghalde, 8008, Z\u00fcrich", "zipcode": "8008"}, {"label": "Eidgen\u00f6ssische Technische Hochschule Z\u00fcrich ETHZ, Standort Zentrum (ZH) - Z\u00fcrich", "lat": 47.37770080566406, "lon": 8.55301570892334, "objectclass": "TLM_NUTZUNGSAREAL", "Kategorie": "UH", "schoolshort": "ETHZ", "name": "ETH Z\u00fcrich, Zentrum", "quarter": "Altstadt", "city": "Z\u00fcrich", "address": "R\u00e4mistrasse, 8091, Z\u00fcrich", "zipcode": "8091"}, {"label": "Eidgen\u00f6ssische Technische Hochschule ETHZ H\u00f6nggerberg (ZH) - Z\u00fcrich", "lat": 47.40850067138672, "lon": 8.50771713256836, "objectclass": "TLM_NUTZUNGSAREAL", "Kategorie": "UH", "schoolshort": "ETHZ", "name": "ETH Z\u00fcrich, H\u00f6nggerberg", "quarter": "H\u00f6ngg", "city": "Z\u00fcrich", "address": "Laura-Hezner-Weg, 8093, Z\u00fcrich", "zipcode": "8093"}, {"label": "Eidgen\u00f6ssische Technische Hochschule ETHZ (ZH) - Z\u00fcrich", "lat": 47.376258850097656, "lon": 8.547501564025879, "objectclass": "TLM_NUTZUNGSAREAL", "Kategorie": "UH", "schoolshort": "ETHZ", "name": "ETH Z\u00fcrich, Zentrum", "quarter": "Altstadt", "city": "Z\u00fcrich", "address": "R\u00e4mistrasse, 8091, Z\u00fcrich", "zipcode": "8091"}, {"label": "Universit\u00e4t (LU) - Luzern", "lat": 47.04965591430664, "lon": 8.312200546264648, "objectclass": "TLM_NUTZUNGSAREAL", "Kategorie": "UH", "schoolshort": "UNILU", "name": "Unknown Amenity", "quarter": "Unknown Quarter", "city": "Horw", "address": "Frohburgstrasse, 6005, ", "zipcode": "6005"}, {"label": "Universit\u00e4t St. Gallen HSG, Standort Varnb\u00fcelstrasse (SG) - St. Gallen", "lat": 47.43149185180664, "lon": 9.373311042785645, "objectclass": "TLM_NUTZUNGSAREAL", "Kategorie": "UH", "schoolshort": "HSG", "name": "Unknown Amenity", "quarter": "Rosenberg", "city": "St. Gallen", "address": "Vadianstrasse, 9000, ", "zipcode": "9000"}, {"label": "Universit\u00e4t St. Gallen HSG, Standort Bahnhofstrasse (SG) - St. Gallen", "lat": 47.425865173339844, "lon": 9.37299633026123, "objectclass": "TLM_NUTZUNGSAREAL", "Kategorie": "UH", "schoolshort": "HSG", "name": "Unknown Amenity", "quarter": "Rosenberg", "city": "St. Gallen", "address": "Bahnhofstrasse, 9000, ", "zipcode": "9000"}, {"label": "Universit\u00e4t St. Gallen HSG (SG) - St. Gallen", "lat": 47.43788146972656, "lon": 9.374914169311523, "objectclass": "TLM_NUTZUNGSAREAL", "Kategorie": "UH", "schoolshort": "HSG", "name": "Unknown Amenity", "quarter": "Rotmonten", "city": "St. Gallen", "address": "Holzstrasse, 9010, ", "zipcode": "9010"}, {"label": "Universit\u00e4t St. Gallen HSG, Standort Tigerbergstrasse (SG) - St. Gallen", "lat": 47.42765808105469, "lon": 9.374059677124023, "objectclass": "TLM_NUTZUNGSAREAL", "Kategorie": "UH", "schoolshort": "HSG", "name": "Unknown Amenity", "quarter": "Rosenberg", "city": "St. Gallen", "address": "Tigerbergstrasse, 9000, ", "zipcode": "9000"}, {"label": "Universit\u00e4t St. Gallen HSG, Standort Gatterstrasse (SG) - St. Gallen", "lat": 47.431861877441406, "lon": 9.372994422912598, "objectclass": "TLM_NUTZUNGSAREAL", "Kategorie": "UH", "schoolshort": "HSG", "name": "Universit\u00e4t St.Gallen", "quarter": "St. Jakob", "city": "St. Gallen", "address": "Dufourstrasse, 9000, ", "zipcode": "9000"}, {"label": "Universit\u00e4t St. Gallen HSG, Standort M\u00fcller-Friedbergstrasse (SG) - St. Gallen", "lat": 47.42805480957031, "lon": 9.375055313110352, "objectclass": "TLM_NUTZUNGSAREAL", "Kategorie": "UH", "schoolshort": "HSG", "name": "Unterer Graben", "quarter": "St. Jakob", "city": "St. Gallen", "address": "M\u00fcller-Friedberg-Strasse, 9000, ", "zipcode": "9000"}, {"label": "Universit\u00e4t St. Gallen HSG, Standort Guisanstrasse (SG) - St. Gallen", "lat": 47.432315826416016, "lon": 9.374073028564453, "objectclass": "TLM_NUTZUNGSAREAL", "Kategorie": "UH", "schoolshort": "HSG", "name": "Unknown Amenity", "quarter": "Rotmonten", "city": "St. Gallen", "address": "Guisanstrasse, 9010, ", "zipcode": "9010"}, {"label": "Universit\u00e4t St. Gallen HSG, Standort Bodanstrasse (SG) - St. Gallen", "lat": 47.430755615234375, "lon": 9.373501777648926, "objectclass": "TLM_NUTZUNGSAREAL", "Kategorie": "UH", "schoolshort": "HSG", "name": "Unknown Amenity", "quarter": "St. Jakob", "city": "St. Gallen", "address": "Bodanstrasse, 9000, ", "zipcode": "9000"}, {"label": "Universit\u00e4t St. Gallen HSG, Standort Blumenbergplatz (SG) - St. Gallen", "lat": 47.42733383178711, "lon": 9.373616218566895, "objectclass": "TLM_NUTZUNGSAREAL", "Kategorie": "UH", "schoolshort": "HSG", "name": "Unknown Amenity", "quarter": "Unknown Quarter", "city": "St. Gallen", "address": ", 9000, ", "zipcode": "9000"}, {"label": "Universit\u00e4t St. Gallen HSG, Standort Tannenstrasse (SG) - St. Gallen", "lat": 47.43440628051758, "lon": 9.377961158752441, "objectclass": "TLM_NUTZUNGSAREAL", "Kategorie": "UH", "schoolshort": "HSG", "name": "Unknown Amenity", "quarter": "Rotmonten", "city": "St. Gallen", "address": "Girtannerstrasse, 9010, ", "zipcode": "9010"}, {"label": "Universit\u00e4t St. Gallen HSG, Standort St. Jakob-Strasse (SG) - St. Gallen", "lat": 47.42917251586914, "lon": 9.378214836120605, "objectclass": "TLM_NUTZUNGSAREAL", "Kategorie": "UH", "schoolshort": "HSG", "name": "Unknown Amenity", "quarter": "St. Jakob", "city": "St. Gallen", "address": "St. Jakob-Strasse, 9000, ", "zipcode": "9000"}, {"label": "Universit\u00e4t St. Gallen HSG, Standort Rosenbergstrasse (SG) - St. Gallen", "lat": 47.42345428466797, "lon": 9.368531227111816, "objectclass": "TLM_NUTZUNGSAREAL", "Kategorie": "UH", "schoolshort": "HSG", "name": "Unknown Amenity", "quarter": "Rosenberg", "city": "St. Gallen", "address": "Rosenbergstrasse, 9000, ", "zipcode": "9000"}, {"label": "Universit\u00e4t St. Gallen HSG, Standort Tellstrasse (SG) - St. Gallen", "lat": 47.42557907104492, "lon": 9.371038436889648, "objectclass": "TLM_NUTZUNGSAREAL", "Kategorie": "UH", "schoolshort": "HSG", "name": "Unknown Amenity", "quarter": "Rosenberg", "city": "St. Gallen", "address": "Tellstrasse, 9000, ", "zipcode": "9000"}, {"label": "Universit\u00e4t St. Gallen HSG, Standort Tigerstrasse (SG) - St. Gallen", "lat": 47.42780303955078, "lon": 9.372838020324707, "objectclass": "TLM_NUTZUNGSAREAL", "Kategorie": "UH", "schoolshort": "HSG", "name": "Unknown Amenity", "quarter": "Rosenberg", "city": "St. Gallen", "address": "Tigerbergstrasse, 9000, ", "zipcode": "9000"}, {"label": "Universit\u00e4t HSG (SG) - St. Gallen", "lat": 47.43150329589844, "lon": 9.375113487243652, "objectclass": "TLM_NUTZUNGSAREAL", "Kategorie": "UH", "schoolshort": "HSG", "name": "Universit\u00e4t St.Gallen", "quarter": "St. Jakob", "city": "St. Gallen", "address": "Dufourstrasse, 9000, ", "zipcode": "9000"}, {"label": "Universit\u00e9 de Neuch\u00e2tel, Facult\u00e9 des lettres et sciences humaines (NE) - Lac de Neuch\u00e2tel (NE),Neuch\u00e2tel,Hauterive (NE)", "lat": 47.00691223144531, "lon": 6.971007823944092, "objectclass": "TLM_NUTZUNGSAREAL", "Kategorie": "UH", "schoolshort": "UNINE", "name": "Unknown Amenity", "quarter": "Unknown Quarter", "city": "Hauterive (NE)", "address": ", 2068, ", "zipcode": "2068"}, {"label": "Universit\u00e9 de Neuch\u00e2tel, Centre international d'\u00e9tude du sport (NE) - Neuch\u00e2tel", "lat": 46.99394989013672, "lon": 6.933488368988037, "objectclass": "TLM_NUTZUNGSAREAL", "Kategorie": "UH", "schoolshort": "UNINE", "name": "H\u00f4tel DuPeyrou", "quarter": "Unknown Quarter", "city": "Milvignes", "address": "Avenue DuPeyrou, 2000, ", "zipcode": "2000"}, {"label": "Universit\u00e9 de Neuch\u00e2tel, Facult\u00e9 des lettres et sciences humaines, Institut d'ethnologie (NE) - Neuch\u00e2tel", "lat": 46.99052429199219, "lon": 6.920483589172363, "objectclass": "TLM_NUTZUNGSAREAL", "Kategorie": "UH", "schoolshort": "UNINE", "name": "Biblioth\u00e8que de l'institut d'ethnologie et mus\u00e9e d'ethnographie", "quarter": "Unknown Quarter", "city": "Milvignes", "address": "Rue de Saint-Nicolas, 2000, ", "zipcode": "2000"}, {"label": "Universit\u00e9 de Neuch\u00e2tel, Facult\u00e9 des sciences, Institut de biologie (NE) - Neuch\u00e2tel", "lat": 47.00001907348633, "lon": 6.935677528381348, "objectclass": "TLM_NUTZUNGSAREAL", "Kategorie": "UH", "schoolshort": "UNINE", "name": "Unknown Amenity", "quarter": "Unknown Quarter", "city": "Milvignes", "address": "Chemin du Pertuis-du-Sault, 2000, ", "zipcode": "2000"}, {"label": "Universit\u00e9 de Neuch\u00e2tel, Facult\u00e9 des lettres et sciences humaines, ILCF (NE) - Neuch\u00e2tel", "lat": 46.994903564453125, "lon": 6.937748432159424, "objectclass": "TLM_NUTZUNGSAREAL", "Kategorie": "UH", "schoolshort": "UNINE", "name": "Unknown Amenity", "quarter": "Unknown Quarter", "city": "Milvignes", "address": "Faubourg de l'H\u00f4pital, 2000, ", "zipcode": "2000"}, {"label": "Universit\u00e4t Bern (BE) - Bern", "lat": 46.95702362060547, "lon": 7.445335865020752, "objectclass": "TLM_NUTZUNGSAREAL", "Kategorie": "UH", "schoolshort": "UNIBE", "name": "Unknown Amenity", "quarter": "Unknown Quarter", "city": "Bern", "address": "Hofweg, 3013, Bern", "zipcode": "3013"}, {"label": "Universit\u00e4t Bern (BE) - Bern", "lat": 46.95195770263672, "lon": 7.438076496124268, "objectclass": "TLM_NUTZUNGSAREAL", "Kategorie": "UH", "schoolshort": "UNIBE", "name": "Universit\u00e4t Bern", "quarter": "Unknown Quarter", "city": "Bern", "address": "Kleine Westtangente, 3012, Bern", "zipcode": "3012"}, {"label": "Universit\u00e4t Bern (BE) - Bern", "lat": 46.949703216552734, "lon": 7.425671100616455, "objectclass": "TLM_NUTZUNGSAREAL", "Kategorie": "UH", "schoolshort": "UNIBE", "name": "Unknown Amenity", "quarter": "Unknown Quarter", "city": "Bern", "address": "Murtenstrasse, 3008, Bern", "zipcode": "3008"}, {"label": "Universit\u00e4t Bern, Standort Sulgenauweg (BE) - Bern", "lat": 46.93843078613281, "lon": 7.437802314758301, "objectclass": "TLM_NUTZUNGSAREAL", "Kategorie": "UH", "schoolshort": "UNIBE", "name": "Unknown Amenity", "quarter": "Unknown Quarter", "city": "Bern", "address": "Wabernstrasse, 3007, Bern", "zipcode": "3007"}, {"label": "Universit\u00e4t Bern (BE) - Bern", "lat": 46.946197509765625, "lon": 7.42382287979126, "objectclass": "TLM_NUTZUNGSAREAL", "Kategorie": "UH", "schoolshort": "UNIBE", "name": "Inselspital", "quarter": "Unknown Quarter", "city": "Bern", "address": "Freiburgstrasse, 3010, Bern", "zipcode": "3010"}, {"label": "Universit\u00e4t Bern (BE) - Bern", "lat": 46.94727325439453, "lon": 7.448678970336914, "objectclass": "TLM_NUTZUNGSAREAL", "Kategorie": "UH", "schoolshort": "UNIBE", "name": "Unknown Amenity", "quarter": "Unknown Quarter", "city": "Bern", "address": "Herrengasse, 3011, Bern", "zipcode": "3011"}, {"label": "Universit\u00e4t Bern (BE) - Bern", "lat": 46.93157958984375, "lon": 7.434787273406982, "objectclass": "TLM_NUTZUNGSAREAL", "Kategorie": "UH", "schoolshort": "UNIBE", "name": "Unknown Amenity", "quarter": "Unknown Quarter", "city": "Bern", "address": "Morillonstrasse, 3007, Bern", "zipcode": "3007"}, {"label": "Universit\u00e4t Bern, Ethologische Station Hasli (BE) - Bern", "lat": 46.96726608276367, "lon": 7.3983588218688965, "objectclass": "TLM_NUTZUNGSAREAL", "Kategorie": "UH", "schoolshort": "UNIBE", "name": "Ethologische Station Hasli", "quarter": "Unknown Quarter", "city": "Bern", "address": "Wohlenstrasse, 3032, Bern", "zipcode": "3032"}, {"label": "Haus der Universit\u00e4t (BE) - Bern", "lat": 46.946834564208984, "lon": 7.432474136352539, "objectclass": "TLM_NUTZUNGSAREAL", "Kategorie": "UH", "schoolshort": "UNIBE", "name": "Haus der Universit\u00e4t", "quarter": "Unknown Quarter", "city": "Bern", "address": "Schl\u00f6sslistrasse, 3008, Bern", "zipcode": "3008"}, {"label": "Universit\u00e4t Z\u00fcrich UZH, Standort Zentrum (ZH) - Z\u00fcrich", "lat": 47.372623443603516, "lon": 8.551169395446777, "objectclass": "TLM_NUTZUNGSAREAL", "Kategorie": "UH", "schoolshort": "UZH", "name": "Asien-Orient-Institut", "quarter": "Fluntern", "city": "Z\u00fcrich", "address": "Z\u00fcrichbergstrasse, 8091, Z\u00fcrich", "zipcode": "8091"}, {"label": "Universit\u00e4t Z\u00fcrich UZH, Standort Oerlikon (ZH) - Z\u00fcrich", "lat": 47.414546966552734, "lon": 8.549342155456543, "objectclass": "TLM_NUTZUNGSAREAL", "Kategorie": "UH", "schoolshort": "UZH", "name": "Unknown Amenity", "quarter": "Seebach", "city": "Z\u00fcrich", "address": "Binzm\u00fchlestrasse, 8050, Z\u00fcrich", "zipcode": "8050"}, {"label": "Universit\u00e4t Z\u00fcrich UZH, Standort Kilchberg (ZH) - Z\u00fcrichsee (ZH),Kilchberg (ZH)", "lat": 47.320098876953125, "lon": 8.55192756652832, "objectclass": "TLM_NUTZUNGSAREAL", "Kategorie": "UH", "schoolshort": "UZH", "name": "Unknown Amenity", "quarter": "Unknown Quarter", "city": "Kilchberg (ZH)", "address": "Seestrasse, 8802, ", "zipcode": "8802"}, {"label": "Universit\u00e4t Z\u00fcrich UZH, Standort Zentrum (ZH) - Z\u00fcrich", "lat": 47.373268127441406, "lon": 8.553496360778809, "objectclass": "TLM_NUTZUNGSAREAL", "Kategorie": "UH", "schoolshort": "UZH", "name": "Unknown Amenity", "quarter": "Fluntern", "city": "Z\u00fcrich", "address": "Plattenstrasse, 8032, Z\u00fcrich", "zipcode": "8032"}, {"label": "Universit\u00e0 della Svizzera italiana USI, Campus Lugano Ovest (TI) - Lugano", "lat": 46.01020050048828, "lon": 8.957698822021484, "objectclass": "TLM_NUTZUNGSAREAL", "Kategorie": "UH", "schoolshort": "USI", "name": "Unknown Amenity", "quarter": "Molino Nuovo", "city": "Lugano", "address": "Via Antonio Fogazzaro, 6900, ", "zipcode": "6900"}, {"label": "Universit\u00e0 della Svizzera italiana USI, Campus di Mendrisio (TI) - Mendrisio", "lat": 45.866695404052734, "lon": 8.985228538513184, "objectclass": "TLM_NUTZUNGSAREAL", "Kategorie": "UH", "schoolshort": "USI", "name": "Unknown Amenity", "quarter": "Unknown Quarter", "city": "Castel San Pietro", "address": "Via Giuseppe Buffi, 6872, ", "zipcode": "6872"}, {"label": "P\u00e4dagogische Hochschule Schaffhausen PHSH (SH) - Schaffhausen", "lat": 47.70753860473633, "lon": 8.642210960388184, "objectclass": "TLM_NUTZUNGSAREAL", "Kategorie": "PH", "schoolshort": "PHSH", "name": "Unknown Amenity", "quarter": "Niklausen", "city": "B\u00fcttenhardt", "address": "Amsler-Laffon-Strasse, 8200, ", "zipcode": "8200"}, {"label": "P\u00e4dagogische Hochschule Luzern, Standort Sentimatt (LU) - Luzern", "lat": 47.05387496948242, "lon": 8.296024322509766, "objectclass": "TLM_NUTZUNGSAREAL", "Kategorie": "PH", "schoolshort": "PHLU", "name": "Unknown Amenity", "quarter": "Unknown Quarter", "city": "Luzern", "address": "Sentimatt, 6003, ", "zipcode": "6003"}, {"label": "P\u00e4dagogische Hochschule Luzern, Standort Frohburgstrasse (LU) - Luzern", "lat": 47.04936599731445, "lon": 8.312407493591309, "objectclass": "TLM_NUTZUNGSAREAL", "Kategorie": "PH", "schoolshort": "PHLU", "name": "Unknown Amenity", "quarter": "Unknown Quarter", "city": "Horw", "address": "Frohburgstrasse, 6005, ", "zipcode": "6005"}, {"label": "P\u00e4dagogische Hochschule Luzern, Standort Pfistergasse (LU) - Luzern", "lat": 47.0510368347168, "lon": 8.302388191223145, "objectclass": "TLM_NUTZUNGSAREAL", "Kategorie": "PH", "schoolshort": "PHLU", "name": "P\u00e4dagogische Hochschule Luzern", "quarter": "Unknown Quarter", "city": "Luzern", "address": "Pfistergasse, 6003, ", "zipcode": "6003"}, {"label": "P\u00e4dagogische Hochschule Luzern, Standort Bellerive (LU) - Luzern", "lat": 47.056644439697266, "lon": 8.329803466796875, "objectclass": "TLM_NUTZUNGSAREAL", "Kategorie": "PH", "schoolshort": "PHLU", "name": "Unknown Amenity", "quarter": "Unknown Quarter", "city": "Ebikon", "address": "Bellerivestrasse, 6006, ", "zipcode": "6006"}, {"label": "P\u00e4dagogische Hochschule Luzern, Standort Musegg (LU) - Luzern", "lat": 47.05461502075195, "lon": 8.306063652038574, "objectclass": "TLM_NUTZUNGSAREAL", "Kategorie": "PH", "schoolshort": "PHLU", "name": "Unknown Amenity", "quarter": "Unknown Quarter", "city": "Ebikon", "address": "Schirmertorweg, 6004, ", "zipcode": "6004"}, {"label": "P\u00e4dagogische Hochschule Luzern, Standort Sagenmatt (LU) - Luzern", "lat": 47.053775787353516, "lon": 8.2896089553833, "objectclass": "TLM_NUTZUNGSAREAL", "Kategorie": "PH", "schoolshort": "PHLU", "name": "Unknown Amenity", "quarter": "Reussb\u00fchl", "city": "Luzern", "address": "Sagenmattstrasse, 6003, ", "zipcode": "6003"}, {"label": "Haute Ecole P\u00e9dagogique HEP-BEJUNE, Site de La Chaux-de-Fonds (NE) - La Chaux-de-Fonds", "lat": 47.107749938964844, "lon": 6.82431173324585, "objectclass": "TLM_NUTZUNGSAREAL", "Kategorie": "PH", "schoolshort": "BEJUNE", "name": "HEP-BEJUNE", "quarter": "Unknown Quarter", "city": "La Chaux-de-Fonds", "address": "Rue de Beauregard, 2300, ", "zipcode": "2300"}, {"label": "Haute Ecole P\u00e9dagogique HEP-BEJUNE, Site de Bienne (BE) - Biel/Bienne,Br\u00fcgg", "lat": 47.1381721496582, "lon": 7.268144130706787, "objectclass": "TLM_NUTZUNGSAREAL", "Kategorie": "PH", "schoolshort": "BEJUNE", "name": "Schulanlage Linde / Ecoles Tilleuls", "quarter": "M\u00e2che/Mett", "city": "Biel/Bienne", "address": "Chemin de la Ciblerie / Scheibenweg, 2503, ", "zipcode": "2503"}, {"label": "Haute Ecole P\u00e9dagogique HEP-BEJUNE, Site de Del\u00e9mont (JU) - Del\u00e9mont", "lat": 47.362606048583984, "lon": 7.35295295715332, "objectclass": "TLM_NUTZUNGSAREAL", "Kategorie": "PH", "schoolshort": "BEJUNE", "name": "Unknown Amenity", "quarter": "Unknown Quarter", "city": "Courrendlin", "address": "Route de Moutier, 2800, ", "zipcode": "2800"}, {"label": "Haute Ecole p\u00e9dagogique Fribourg HEP FR, Site HEP I (FR) - Fribourg", "lat": 46.811222076416016, "lon": 7.158876419067383, "objectclass": "TLM_NUTZUNGSAREAL", "Kategorie": "PH", "schoolshort": "HEPFRI", "name": "Haute \u00c9cole p\u00e9dagogique", "quarter": "P\u00e9rolles", "city": "Fribourg", "address": "Rue de Morat / Murtengasse, 1700, ", "zipcode": "1700"}, {"label": "Haute Ecole p\u00e9dagogique Fribourg HEP FR, Site HEP II (FR) - Fribourg", "lat": 46.80936813354492, "lon": 7.1590352058410645, "objectclass": "TLM_NUTZUNGSAREAL", "Kategorie": "PH", "schoolshort": "HEPFRI", "name": "Unknown Amenity", "quarter": "P\u00e9rolles", "city": "Fribourg", "address": "Rue de Morat / Murtengasse, 1700, ", "zipcode": "1700"}, {"label": "P\u00e4dagogische Hochschule Graub\u00fcnden Chur phGR (GR) - Chur", "lat": 46.86703109741211, "lon": 9.536943435668945, "objectclass": "TLM_NUTZUNGSAREAL", "Kategorie": "PH", "schoolshort": "PHGR", "name": "P\u00e4dagogische Hochschule GR", "quarter": "Masans", "city": "Chur", "address": "Scal\u00e4rastrasse, 7023, ", "zipcode": "7023"}, {"label": "P\u00e4dagogische Hochschule Zug (ZG) - Zug", "lat": 47.16225814819336, "lon": 8.518654823303223, "objectclass": "TLM_NUTZUNGSAREAL", "Kategorie": "PH", "schoolshort": "PHZG", "name": "P\u00e4dagogische Hochschule Zug", "quarter": "Neustadt", "city": "Baar", "address": "Zugerbergstrasse, 6300, ", "zipcode": "6300"}, {"label": "P\u00e4dagogische Hochschule Bern PHBern, Standort Muesmattstrasse (BE) - Bern", "lat": 46.95317459106445, "lon": 7.428527355194092, "objectclass": "TLM_NUTZUNGSAREAL", "Kategorie": "PH", "schoolshort": "PHBE", "name": "Standort Muesmatt PHBern", "quarter": "Unknown Quarter", "city": "Bern", "address": "Baltzerstrasse, 3012, Bern", "zipcode": "3012"}, {"label": "P\u00e4dagogische Hochschule Bern PHBern (BE) - Bern", "lat": 46.9529914855957, "lon": 7.422307968139648, "objectclass": "TLM_NUTZUNGSAREAL", "Kategorie": "PH", "schoolshort": "PHBE", "name": "Standort Hochschulzentrum vonRoll", "quarter": "Unknown Quarter", "city": "Bern", "address": "Murtenstrasse, 3008, Bern", "zipcode": "3008"}, {"label": "P\u00e4dagogische Hochschule Bern PHBern, Standort Weltistrasse (BE) - Bern", "lat": 46.94568634033203, "lon": 7.475581645965576, "objectclass": "TLM_NUTZUNGSAREAL", "Kategorie": "PH", "schoolshort": "PHBE", "name": "PHBern - Institut Heilp\u00e4dagogik und Institut Weiterbildung", "quarter": "Unknown Quarter", "city": "Bern", "address": "Weltistrasse, 3006, Bern", "zipcode": "3006"}, {"label": "P\u00e4dagogische Hochschule Bern PHBern, Standort Muristalden (BE) - Bern", "lat": 46.944278717041016, "lon": 7.460587501525879, "objectclass": "TLM_NUTZUNGSAREAL", "Kategorie": "PH", "schoolshort": "PHBE", "name": "Campus Muristalden", "quarter": "Unknown Quarter", "city": "Bern", "address": "Muristrasse, 3006, Bern", "zipcode": "3006"}, {"label": "P\u00e4dagogische Hochschule Bern PHBern, Standort Helvetiaplatz (BE) - Bern", "lat": 46.94424057006836, "lon": 7.448553562164307, "objectclass": "TLM_NUTZUNGSAREAL", "Kategorie": "PH", "schoolshort": "PHBE", "name": "Unknown Amenity", "quarter": "Unknown Quarter", "city": "Bern", "address": "Feldeggweg, 3005, Bern", "zipcode": "3005"}, {"label": "P\u00e4dagogische Hochschule Thurgau PHTG (TG) - Kreuzlingen", "lat": 47.647056579589844, "lon": 9.180352210998535, "objectclass": "TLM_NUTZUNGSAREAL", "Kategorie": "PH", "schoolshort": "PHTG", "name": "Unknown Amenity", "quarter": "Unknown Quarter", "city": "Bottighofen", "address": "Weinstrasse, 8280, ", "zipcode": "8280"}, {"label": "P\u00e4dagogische Hochschule Wallis PH-VS, Standort Brig (VS) - Brig-Glis", "lat": 46.3157958984375, "lon": 7.990724086761475, "objectclass": "TLM_NUTZUNGSAREAL", "Kategorie": "PH", "schoolshort": "PHVS", "name": "Unknown Amenity", "quarter": "Unknown Quarter", "city": "Brig-Glis", "address": "Alte Simplonstrasse, 3900, Brig-Glis", "zipcode": "3900"}, {"label": "P\u00e4dagogische Hochschule St. Gallen PHSG, Hochschulgeb\u00e4ude Mariaberg Rorschach (SG) - Rorschach", "lat": 47.47188949584961, "lon": 9.495279312133789, "objectclass": "TLM_NUTZUNGSAREAL", "Kategorie": "PH", "schoolshort": "PHSG", "name": "PHSG Mariaberg", "quarter": "Unknown Quarter", "city": "Goldach", "address": "Mariabergstrasse, 9400, ", "zipcode": "9400"}, {"label": "P\u00e4dagogische Hochschule St. Gallen PHSG, Hochschulgeb\u00e4ude Stella Maris Rorschach (SG) - Rorschach", "lat": 47.47397994995117, "lon": 9.501343727111816, "objectclass": "TLM_NUTZUNGSAREAL", "Kategorie": "PH", "schoolshort": "PHSG", "name": "Unknown Amenity", "quarter": "Unknown Quarter", "city": "Goldach", "address": "M\u00fcller-Friedbergstrasse, 9400, ", "zipcode": "9400"}, {"label": "P\u00e4dagogische Hochschule St. Gallen PHSG, Hochschulgeb\u00e4ude Gossau (SG) - Gossau (SG)", "lat": 47.40973663330078, "lon": 9.2525053024292, "objectclass": "TLM_NUTZUNGSAREAL", "Kategorie": "PH", "schoolshort": "PHSG", "name": "Unknown Amenity", "quarter": "Unknown Quarter", "city": "Herisau", "address": "Seminarstrasse, 9200, ", "zipcode": "9200"}, {"label": "P\u00e4dagogische Hochschule PHZH (ZH) - Z\u00fcrich", "lat": 47.3776969909668, "lon": 8.534499168395996, "objectclass": "TLM_NUTZUNGSAREAL", "Kategorie": "PH", "schoolshort": "PHZH", "name": "Unknown Amenity", "quarter": "Kreis 4", "city": "Z\u00fcrich", "address": "Europaallee Passage, 8004, Z\u00fcrich", "zipcode": "8004"}, {"label": "Haute \u00e9cole p\u00e9dagogique du canton de Vaud HEP, Site de S\u00e9beillon (VD) - Lausanne", "lat": 46.52317810058594, "lon": 6.619101524353027, "objectclass": "TLM_NUTZUNGSAREAL", "Kategorie": "PH", "schoolshort": "HEPVD", "name": "Unknown Amenity", "quarter": "Unknown Quarter", "city": "Lausanne", "address": "Rue de S\u00e9beillon, 1004, Lausanne", "zipcode": "1004"}, {"label": "Haute \u00e9cole p\u00e9dagogique du canton de Vaud HEP, Site de S\u00e9velin (VD) - Lausanne", "lat": 46.52280044555664, "lon": 6.618963241577148, "objectclass": "TLM_NUTZUNGSAREAL", "Kategorie": "PH", "schoolshort": "HEPVD", "name": "Unknown Amenity", "quarter": "Unknown Quarter", "city": "Lausanne", "address": "Avenue de S\u00e9velin, 1004, Lausanne", "zipcode": "1004"}, {"label": "Z\u00fcrcher Hochschule f\u00fcr Angewandte Wissenschaften ZHAW, Winterthur (ZH) - Winterthur", "lat": 47.49652862548828, "lon": 8.719242095947266, "objectclass": "TLM_NUTZUNGSAREAL", "Kategorie": "FH", "schoolshort": "ZHAW", "name": "Unknown Amenity", "quarter": "Stadt", "city": "Winterthur", "address": "Turbinenstrasse, 8400, Winterthur", "zipcode": "8400"}, {"label": "Z\u00fcrcher Hochschule f\u00fcr Angewandte Wissenschaften ZHAW, W\u00e4denswil (ZH) - W\u00e4denswil", "lat": 47.21951675415039, "lon": 8.687246322631836, "objectclass": "TLM_NUTZUNGSAREAL", "Kategorie": "FH", "schoolshort": "ZHAW", "name": "Unknown Amenity", "quarter": "Unknown Quarter", "city": "W\u00e4denswil", "address": "Einsiedlerstrasse, 8820, ", "zipcode": "8820"}, {"label": "Z\u00fcrcher Hochschule f\u00fcr Angewandte Wissenschaften ZHAW, Z\u00fcrich, Campus Zentrum (ZH) - Z\u00fcrich", "lat": 47.37763977050781, "lon": 8.531746864318848, "objectclass": "TLM_NUTZUNGSAREAL", "Kategorie": "FH", "schoolshort": "ZHAW", "name": "Unknown Amenity", "quarter": "Kreis 4", "city": "Z\u00fcrich", "address": "Milit\u00e4rstrasse, 8004, Z\u00fcrich", "zipcode": "8004"}, {"label": "Z\u00fcrcher Hochschule f\u00fcr Angewandte Wissenschaften ZHAW, Winterthur (ZH) - Winterthur", "lat": 47.503318786621094, "lon": 8.727288246154785, "objectclass": "TLM_NUTZUNGSAREAL", "Kategorie": "FH", "schoolshort": "ZHAW", "name": "ZHAW Campus St- Georgen-Platz", "quarter": "Stadt", "city": "Winterthur", "address": "Bahnfussweg, 8401, Winterthur", "zipcode": "8401"}, {"label": "Z\u00fcrcher Hochschule f\u00fcr Angewandte Wissenschaften ZHAW, Winterthur (ZH) - Winterthur", "lat": 47.49848937988281, "lon": 8.729511260986328, "objectclass": "TLM_NUTZUNGSAREAL", "Kategorie": "FH", "schoolshort": "ZHAW", "name": "Unknown Amenity", "quarter": "Stadt", "city": "Winterthur", "address": "Obere Kirchgasse, 8403, Winterthur", "zipcode": "8403"}, {"label": "Hochschule Luzern, Wirtschaft, Standort R\u00f6sslimatte (LU) - Luzern", "lat": 47.043914794921875, "lon": 8.315038681030273, "objectclass": "TLM_NUTZUNGSAREAL", "Kategorie": "FH", "schoolshort": "HSLU", "name": "Unknown Amenity", "quarter": "Unknown Quarter", "city": "Horw", "address": "R\u00f6sslimatte, 6005, ", "zipcode": "6005"}, {"label": "Hochschule Luzern, Standort Baselstrasse (LU) - Luzern", "lat": 47.053131103515625, "lon": 8.293081283569336, "objectclass": "TLM_NUTZUNGSAREAL", "Kategorie": "FH", "schoolshort": "HSLU", "name": "Unknown Amenity", "quarter": "Reussb\u00fchl", "city": "Luzern", "address": "Baselstrasse, 6003, ", "zipcode": "6003"}, {"label": "Hochschule Luzern, Technik und Architektur (LU) - Horw", "lat": 47.01374816894531, "lon": 8.305948257446289, "objectclass": "TLM_NUTZUNGSAREAL", "Kategorie": "FH", "schoolshort": "HSLU", "name": "Hochschule Luzern - Technik & Architektur", "quarter": "Ennethorw", "city": "Horw", "address": "Br\u00fcnigweg, 6048, ", "zipcode": "6048"}, {"label": "Hochschule Luzern, Wirtschaft, Standort Zentralstrasse (LU) - Luzern", "lat": 47.04853439331055, "lon": 8.30980396270752, "objectclass": "TLM_NUTZUNGSAREAL", "Kategorie": "FH", "schoolshort": "HSLU", "name": "Hochschule Luzern Wirtschaft", "quarter": "Unknown Quarter", "city": "Luzern", "address": "Zentralstrasse, 6003, ", "zipcode": "6003"}, {"label": "Hochschule Luzern, Design und Kunst (LU) - Emmen", "lat": 47.07119369506836, "lon": 8.27770709991455, "objectclass": "TLM_NUTZUNGSAREAL", "Kategorie": "FH", "schoolshort": "HSLU", "name": "Unknown Amenity", "quarter": "Emmenbr\u00fccke", "city": "Emmen", "address": "Nylsuisseplatz, 6020, ", "zipcode": "6020"}, {"label": "Hochschule Luzern, Musik (LU) - Kriens", "lat": 47.032562255859375, "lon": 8.296968460083008, "objectclass": "TLM_NUTZUNGSAREAL", "Kategorie": "FH", "schoolshort": "HSLU", "name": "Unknown Amenity", "quarter": "Unknown Quarter", "city": "Kriens", "address": "Arsenalstrasse, 6010, ", "zipcode": "6010"}, {"label": "Hochschule Luzern, Wirtschaft, Standort Frankenstrasse (LU) - Luzern", "lat": 47.049034118652344, "lon": 8.30873966217041, "objectclass": "TLM_NUTZUNGSAREAL", "Kategorie": "FH", "schoolshort": "HSLU", "name": "Unknown Amenity", "quarter": "Unknown Quarter", "city": "Luzern", "address": "Frankenstrasse, 6003, ", "zipcode": "6003"}, {"label": "Hochschule Luzern, Soziale Arbeit (LU) - Luzern", "lat": 47.04795837402344, "lon": 8.314653396606445, "objectclass": "TLM_NUTZUNGSAREAL", "Kategorie": "FH", "schoolshort": "HSLU", "name": "Unknown Amenity", "quarter": "Unknown Quarter", "city": "Horw", "address": "Werftestrasse, 6005, ", "zipcode": "6005"}, {"label": "Kalaidos Banking+Finance School Vezia (TI) - Vezia", "lat": 46.02779769897461, "lon": 8.93612003326416, "objectclass": "TLM_NUTZUNGSAREAL", "Kategorie": "FH", "schoolshort": "KALAI", "name": "Biblioteca del Centro di Studi Bancari", "quarter": "Unknown Quarter", "city": "Lugano", "address": "Via Morosini, 6943, ", "zipcode": "6943"}, {"label": "Kalaidos Banking+Finance School (ZH) - Z\u00fcrich", "lat": 47.41545867919922, "lon": 8.54350471496582, "objectclass": "TLM_NUTZUNGSAREAL", "Kategorie": "FH", "schoolshort": "KALAI", "name": "Unknown Amenity", "quarter": "Seebach", "city": "Z\u00fcrich", "address": "Jungholzstrasse, 8050, Z\u00fcrich", "zipcode": "8050"}, {"label": "Kalaidos Banking+Finance School Lausanne (VD) - Lausanne", "lat": 46.51943588256836, "lon": 6.635108947753906, "objectclass": "TLM_NUTZUNGSAREAL", "Kategorie": "FH", "schoolshort": "KALAI", "name": "Unknown Amenity", "quarter": "Unknown Quarter", "city": "Lausanne", "address": "Galeries Saint-Fran\u00e7ois, 1003, Lausanne", "zipcode": "1003"}, {"label": "Haute Ecole de Sant\u00e9 Vaud HESAV, Site Beaumont (VD) - Lausanne", "lat": 46.524085998535156, "lon": 6.644684314727783, "objectclass": "TLM_NUTZUNGSAREAL", "Kategorie": "FH", "schoolshort": "HESSO", "name": "Centre hospitalier universitaire vaudois", "quarter": "Unknown Quarter", "city": "Lausanne", "address": "Rue du Bugnon, 1011, Lausanne", "zipcode": "1011"}, {"label": "Haute Ecole Arc Ing\u00e9nierie (NE) - La Chaux-de-Fonds", "lat": 47.0793571472168, "lon": 6.7950310707092285, "objectclass": "TLM_NUTZUNGSAREAL", "Kategorie": "FH", "schoolshort": "HESSO", "name": "Unknown Amenity", "quarter": "Unknown Quarter", "city": "La Chaux-de-Fonds", "address": "Eplatures-Grise, 2322, ", "zipcode": "2322"}, {"label": "Haute Ecole de gestion Fribourg HEG-FR (FR) - Fribourg", "lat": 46.793678283691406, "lon": 7.156759262084961, "objectclass": "TLM_NUTZUNGSAREAL", "Kategorie": "FH", "schoolshort": "HESSO", "name": "Unknown Amenity", "quarter": "P\u00e9rolles", "city": "Fribourg", "address": "Chemin du Mus\u00e9e, 1700, ", "zipcode": "1700"}, {"label": "Haute Ecole de Sant\u00e9 Vaud HESAV, Site Bugnon (VD) - Lausanne", "lat": 46.5242919921875, "lon": 6.640083312988281, "objectclass": "TLM_NUTZUNGSAREAL", "Kategorie": "FH", "schoolshort": "HESSO", "name": "Centre hospitalier universitaire vaudois", "quarter": "Unknown Quarter", "city": "Lausanne", "address": "Rue du Bugnon, 1011, Lausanne", "zipcode": "1011"}, {"label": "Haute Ecole de la Sant\u00e9 (VD) - Lausanne", "lat": 46.529510498046875, "lon": 6.6228790283203125, "objectclass": "TLM_NUTZUNGSAREAL", "Kategorie": "FH", "schoolshort": "HESSO", "name": "Th\u00e9\u00e2tre de Beaulieu", "quarter": "Unknown Quarter", "city": "Lausanne", "address": "Avenue des Bergi\u00e8res, 1004, Lausanne", "zipcode": "1004"}, {"label": "Haute Ecole d'Art et de Design Gen\u00e8ve HEAD, Site James-Fazy (GE) - Gen\u00e8ve", "lat": 46.20893478393555, "lon": 6.141093730926514, "objectclass": "TLM_NUTZUNGSAREAL", "Kategorie": "FH", "schoolshort": "HESSO", "name": "Unknown Amenity", "quarter": "Grottes et Saint-Gervais", "city": "Gen\u00e8ve", "address": "Boulevard James-Fazy, 1201, Gen\u00e8ve", "zipcode": "1201"}, {"label": "Haute Ecole d'Art et de Design Gen\u00e8ve HEAD, Site Encyclop\u00e9die (GE) - Gen\u00e8ve", "lat": 46.206905364990234, "lon": 6.135619163513184, "objectclass": "TLM_NUTZUNGSAREAL", "Kategorie": "FH", "schoolshort": "HESSO", "name": "Unknown Amenity", "quarter": "Saint-Jean et Charmilles", "city": "Gen\u00e8ve", "address": "Chemin Galiffe, 8973, Gen\u00e8ve", "zipcode": "8973"}, {"label": "Haute \u00e9cole sp\u00e9cialis\u00e9e bernoise, D\u00e9partement Technique et informatique, Site de Vauffelin (BE) - Sauge", "lat": 47.176307678222656, "lon": 7.277803897857666, "objectclass": "TLM_NUTZUNGSAREAL", "Kategorie": "FH", "schoolshort": "HESSO", "name": "Unknown Amenity", "quarter": "Unknown Quarter", "city": "Sauge", "address": "Route Principale, 2537, Sauge", "zipcode": "2537"}, {"label": "Haute \u00e9cole de musique de Gen\u00e8ve HEM, Rue du Diorama (GE) - Gen\u00e8ve", "lat": 46.20231628417969, "lon": 6.138455390930176, "objectclass": "TLM_NUTZUNGSAREAL", "Kategorie": "FH", "schoolshort": "HESSO", "name": "Unknown Amenity", "quarter": "Jonction", "city": "Gen\u00e8ve", "address": "Rue du Diorama, 1205, Gen\u00e8ve", "zipcode": "1205"}, {"label": "Haute Ecole de musique de Gen\u00e8ve HEM, Site de Neuch\u00e2tel (NE) - Neuch\u00e2tel", "lat": 46.998653411865234, "lon": 6.9417924880981445, "objectclass": "TLM_NUTZUNGSAREAL", "Kategorie": "FH", "schoolshort": "HESSO", "name": "Unknown Amenity", "quarter": "Unknown Quarter", "city": "Milvignes", "address": "Espace de l'Europe, 2000, ", "zipcode": "2000"}, {"label": "Haute Ecole Arc, Site de Neuch\u00e2tel (NE) - Neuch\u00e2tel", "lat": 46.998653411865234, "lon": 6.9417924880981445, "objectclass": "TLM_NUTZUNGSAREAL", "Kategorie": "FH", "schoolshort": "HESSO", "name": "Unknown Amenity", "quarter": "Unknown Quarter", "city": "Milvignes", "address": "Espace de l'Europe, 2000, ", "zipcode": "2000"}, {"label": "Haute \u00e9cole de travail social Gen\u00e8ve HETS, Infotheque, Psychomotricit\u00e9 (GE) - Gen\u00e8ve", "lat": 46.19256591796875, "lon": 6.14595890045166, "objectclass": "TLM_NUTZUNGSAREAL", "Kategorie": "FH", "schoolshort": "HESSO", "name": "Unknown Amenity", "quarter": "Plainpalais", "city": "Gen\u00e8ve", "address": "Rue du Pr\u00e9-J\u00e9r\u00f4me, 1205, Gen\u00e8ve", "zipcode": "1205"}, {"label": "Haute Ecole d'Art et de Design Gen\u00e8ve HEAD, Site G\u00e9n\u00e9ral-Dufour (GE) - Gen\u00e8ve", "lat": 46.202369689941406, "lon": 6.140691757202148, "objectclass": "TLM_NUTZUNGSAREAL", "Kategorie": "FH", "schoolshort": "HESSO", "name": "Unknown Amenity", "quarter": "Cit\u00e9", "city": "Gen\u00e8ve", "address": "Rue du G\u00e9n\u00e9ral-Dufour, 1204, Gen\u00e8ve", "zipcode": "1204"}, {"label": "Haute \u00e9cole de viticulture et oenologie (VD) - Nyon", "lat": 46.398014068603516, "lon": 6.232863426208496, "objectclass": "TLM_NUTZUNGSAREAL", "Kategorie": "FH", "schoolshort": "HESSO", "name": "HES-SO Changins (Agroscope)", "quarter": "Unknown Quarter", "city": "Nyon", "address": "Chemin du Groseillier, 1260, ", "zipcode": "1260"}, {"label": "Haute Ecole de Sant\u00e9 Vaud HESAV (VD) - Lausanne", "lat": 46.510765075683594, "lon": 6.63123893737793, "objectclass": "TLM_NUTZUNGSAREAL", "Kategorie": "FH", "schoolshort": "HESSO", "name": "Unknown Amenity", "quarter": "Unknown Quarter", "city": "Lausanne", "address": "Avenue de l'\u00c9lys\u00e9e, 1006, Lausanne", "zipcode": "1006"}, {"label": "Haute \u00e9cole de travail social Gen\u00e8ve (GE) - Gen\u00e8ve", "lat": 46.19355392456055, "lon": 6.144640922546387, "objectclass": "TLM_NUTZUNGSAREAL", "Kategorie": "FH", "schoolshort": "HESSO", "name": "Unknown Amenity", "quarter": "Plainpalais", "city": "Gen\u00e8ve", "address": "Rue Pr\u00e9vost-Martin, 1205, Gen\u00e8ve", "zipcode": "1205"}, {"label": "Haute \u00e9cole des arts de la sc\u00e8ne, Manufacture (VD) - Lausanne", "lat": 46.52690887451172, "lon": 6.604745388031006, "objectclass": "TLM_NUTZUNGSAREAL", "Kategorie": "FH", "schoolshort": "HESSO", "name": "Unknown Amenity", "quarter": "Unknown Quarter", "city": "Lausanne", "address": "Rue du Grand-Pr\u00e9, 1008, Lausanne", "zipcode": "1008"}, {"label": "Haute Ecole de Gestion de Gen\u00e8ve HEG, Campus de Battelle (GE) - Carouge (GE)", "lat": 46.17578125, "lon": 6.139766693115234, "objectclass": "TLM_NUTZUNGSAREAL", "Kategorie": "FH", "schoolshort": "HESSO", "name": "Universit\u00e9 Battelle", "quarter": "La Praille", "city": "Veyrier", "address": "Route de Drize, 1234, ", "zipcode": "1234"}, {"label": "Haute Ecole Arc Ing\u00e9nierie, P\u00f4le horloger, Le Locle (NE) - Le Locle", "lat": 47.05466842651367, "lon": 6.7428412437438965, "objectclass": "TLM_NUTZUNGSAREAL", "Kategorie": "FH", "schoolshort": "HESSO", "name": "Unknown Amenity", "quarter": "Unknown Quarter", "city": "Le Cerneux-P\u00e9quignot", "address": "Avenue de l'H\u00f4tel-de-Ville, 2400, ", "zipcode": "2400"}, {"label": "Haute Ecole Arc Ing\u00e9nierie, Parc technologique de St-Imier (BE) - Saint-Imier", "lat": 47.15504837036133, "lon": 7.002590656280518, "objectclass": "TLM_NUTZUNGSAREAL", "Kategorie": "FH", "schoolshort": "HESSO", "name": "PTSI/He-ARC", "quarter": "Unknown Quarter", "city": "Cormoret", "address": "Rue de la Serre, 2610, ", "zipcode": "2610"}, {"label": "Haute \u00e9cole de sant\u00e9 Fribourg HEdS-FR, St-Justin (FR) - Fribourg", "lat": 46.807735443115234, "lon": 7.1532979011535645, "objectclass": "TLM_NUTZUNGSAREAL", "Kategorie": "FH", "schoolshort": "HESSO", "name": "Unknown Amenity", "quarter": "P\u00e9rolles", "city": "Fribourg", "address": "Rue de Rome, 1700, ", "zipcode": "1700"}, {"label": "Haute Ecole de Travail Social HES-SO Valais (VS) - Sierre", "lat": 46.29275894165039, "lon": 7.536412715911865, "objectclass": "TLM_NUTZUNGSAREAL", "Kategorie": "FH", "schoolshort": "HESSO", "name": "M\u00e9diath\u00e8que HES-SO Valais - Social, Gestion & Tourisme", "quarter": "Unknown Quarter", "city": "Sierre", "address": "Route de la Plaine, 3960, ", "zipcode": "3960"}, {"label": "Haute Ecole de Gestion et Tourisme HES-SO Valais (VS) - Sierre", "lat": 46.29275894165039, "lon": 7.536412715911865, "objectclass": "TLM_NUTZUNGSAREAL", "Kategorie": "FH", "schoolshort": "HESSO", "name": "M\u00e9diath\u00e8que HES-SO Valais - Social, Gestion & Tourisme", "quarter": "Unknown Quarter", "city": "Sierre", "address": "Route de la Plaine, 3960, ", "zipcode": "3960"}, {"label": "Haute Ecole d'Art et de Design Gen\u00e8ve HEAD, Site Boulevard Helv\u00e9tique (GE) - Gen\u00e8ve", "lat": 46.19857406616211, "lon": 6.150982856750488, "objectclass": "TLM_NUTZUNGSAREAL", "Kategorie": "FH", "schoolshort": "HESSO", "name": "Unknown Amenity", "quarter": "Cit\u00e9", "city": "Gen\u00e8ve", "address": "Boulevard Helv\u00e9tique, 1205, Gen\u00e8ve", "zipcode": "1205"}, {"label": "Haute Ecole d'Ing\u00e9nierie HES-SO Valais (VS) - Sion", "lat": 46.24058532714844, "lon": 7.358895778656006, "objectclass": "TLM_NUTZUNGSAREAL", "Kategorie": "FH", "schoolshort": "HESSO", "name": "HES-SO Valais", "quarter": "Unknown Quarter", "city": "Grimisuat", "address": "Chemin de la Sitterie, 1950, ", "zipcode": "1950"}, {"label": "Haute \u00e9cole de viticulture et oenologie Changins (VD) - Duillier", "lat": 46.400028228759766, "lon": 6.235716342926025, "objectclass": "TLM_NUTZUNGSAREAL", "Kategorie": "FH", "schoolshort": "HESSO", "name": "Unknown Amenity", "quarter": "Unknown Quarter", "city": "Duillier", "address": "Route de Nyon, 1266, ", "zipcode": "1266"}, {"label": "Haute \u00e9cole d'ing\u00e9nieurs et d'architectes de Fribourg HEIA-FR, Site Beauregard (FR) - Fribourg", "lat": 46.80315017700195, "lon": 7.145684242248535, "objectclass": "TLM_NUTZUNGSAREAL", "Kategorie": "FH", "schoolshort": "HESSO", "name": "Unknown Amenity", "quarter": "P\u00e9rolles", "city": "Fribourg", "address": "Rue de la Carri\u00e8re, 1700, ", "zipcode": "1700"}, {"label": "Haute Ecole de l'Arc Jurassien HE-Arc, Site de Del\u00e9mont (JU) - Del\u00e9mont", "lat": 47.362606048583984, "lon": 7.35295295715332, "objectclass": "TLM_NUTZUNGSAREAL", "Kategorie": "FH", "schoolshort": "HESSO", "name": "Unknown Amenity", "quarter": "Unknown Quarter", "city": "Courrendlin", "address": "Route de Moutier, 2800, ", "zipcode": "2800"}, {"label": "Haute \u00e9cole de travail social et de la sant\u00e9 Lausanne HETSL (VD) - Lausanne", "lat": 46.54061508178711, "lon": 6.648189067840576, "objectclass": "TLM_NUTZUNGSAREAL", "Kategorie": "FH", "schoolshort": "HESSO", "name": "EESP", "quarter": "Unknown Quarter", "city": "Lausanne", "address": "Chemin des Abeilles, 1010, Lausanne", "zipcode": "1010"}, {"label": "Haute \u00e9cole de musique de Gen\u00e8ve HEM, Administration (GE) - Gen\u00e8ve", "lat": 46.2025260925293, "lon": 6.139133453369141, "objectclass": "TLM_NUTZUNGSAREAL", "Kategorie": "FH", "schoolshort": "HESSO", "name": "Unknown Amenity", "quarter": "Jonction", "city": "Gen\u00e8ve", "address": "Rue de la Synagogue, 1205, Gen\u00e8ve", "zipcode": "1205"}, {"label": "Haute \u00c9cole d'Art et de Design Gen\u00e8ve HEAD, Site Franchises (GE) - Gen\u00e8ve", "lat": 46.20982360839844, "lon": 6.121776103973389, "objectclass": "TLM_NUTZUNGSAREAL", "Kategorie": "FH", "schoolshort": "HESSO", "name": "Unknown Amenity", "quarter": "Saint-Jean et Charmilles", "city": "Gen\u00e8ve", "address": "Rue de Lyon, 1203, Gen\u00e8ve", "zipcode": "1203"}, {"label": "Haute \u00e9cole d'ing\u00e9nierie et d'architecture de Fribourg HEIA-FR, Site Arsenaux (FR) - Fribourg", "lat": 46.7962532043457, "lon": 7.152294158935547, "objectclass": "TLM_NUTZUNGSAREAL", "Kategorie": "FH", "schoolshort": "HESSO", "name": "Unknown Amenity", "quarter": "P\u00e9rolles", "city": "Fribourg", "address": "Route des Arsenaux, 1700, ", "zipcode": "1700"}, {"label": "Haute \u00c9cole de Musique Vaud Valais Fribourg HEMU, Site de Fribourg (FR) - Fribourg,Granges-Paccot", "lat": 46.81254577636719, "lon": 7.141256809234619, "objectclass": "TLM_NUTZUNGSAREAL", "Kategorie": "FH", "schoolshort": "HESSO", "name": "Unknown Amenity", "quarter": "Agy", "city": "Granges-Paccot", "address": "Route Louis-Braille, 1763, ", "zipcode": "1763"}, {"label": "Haute \u00e9cole de musique de Gen\u00e8ve HEM, Rue Petitot (GE) - Gen\u00e8ve", "lat": 46.20302963256836, "lon": 6.1417412757873535, "objectclass": "TLM_NUTZUNGSAREAL", "Kategorie": "FH", "schoolshort": "HESSO", "name": "Unknown Amenity", "quarter": "Cit\u00e9", "city": "Gen\u00e8ve", "address": "Rue Jean-Petitot, 1204, Gen\u00e8ve", "zipcode": "1204"}, {"label": "Haute Ecole de Musique de Lausanne HEMU, Site du Flon (VD) - Lausanne", "lat": 46.52133560180664, "lon": 6.626607418060303, "objectclass": "TLM_NUTZUNGSAREAL", "Kategorie": "FH", "schoolshort": "HESSO", "name": "Unknown Amenity", "quarter": "Unknown Quarter", "city": "Lausanne", "address": "Rue des C\u00f4tes-de-Montbenon, 1001, Lausanne", "zipcode": "1001"}, {"label": "Haute Ecole de Sant\u00e9 HES-SO Valais, Site de Sion (VS) - Sion", "lat": 46.235679626464844, "lon": 7.351088047027588, "objectclass": "TLM_NUTZUNGSAREAL", "Kategorie": "FH", "schoolshort": "HESSO", "name": "Unknown Amenity", "quarter": "Unknown Quarter", "city": "Grimisuat", "address": "Chemin de l'Agasse, 1950, ", "zipcode": "1950"}, {"label": "Haute Ecole de Sant\u00e9 Vaud HESAV, Site C\u00e9sar-Roux (VD) - Lausanne", "lat": 46.524375915527344, "lon": 6.638319969177246, "objectclass": "TLM_NUTZUNGSAREAL", "Kategorie": "FH", "schoolshort": "HESSO", "name": "Centre hospitalier universitaire vaudois", "quarter": "Unknown Quarter", "city": "Lausanne", "address": "Rue du Bugnon, 1011, Lausanne", "zipcode": "1011"}, {"label": "Haute \u00e9cole du paysage, d'ing\u00e9nierie et d'architecture de Gen\u00e8ve HEPIA, Site Gen\u00e8ve (GE) - Gen\u00e8ve", "lat": 46.20930099487305, "lon": 6.135863780975342, "objectclass": "TLM_NUTZUNGSAREAL", "Kategorie": "FH", "schoolshort": "HESSO", "name": "Haute \u00e9cole du paysage d'ing\u00e9nierie et d'architecture de Gen\u00e8ve", "quarter": "Grottes et Saint-Gervais", "city": "Gen\u00e8ve", "address": "Rue de la Prairie, 1202, Gen\u00e8ve", "zipcode": "1202"}, {"label": "Interstaatliche Hochschule f\u00fcr Technik Buchs NTB, Studienzentrum St. Gallen (SG) - St. Gallen", "lat": 47.41779708862305, "lon": 9.346978187561035, "objectclass": "TLM_NUTZUNGSAREAL", "Kategorie": "FH", "schoolshort": "OST", "name": "Unknown Amenity", "quarter": "Lachen", "city": "St. Gallen", "address": "Sch\u00f6nauweg, 9000, ", "zipcode": "9000"}, {"label": "Interstaatliche Hochschule f\u00fcr Technik NTB (SG) - Buchs (SG)", "lat": 47.17267990112305, "lon": 9.473700523376465, "objectclass": "TLM_NUTZUNGSAREAL", "Kategorie": "FH", "schoolshort": "OST", "name": "Ostschweizer Fachhochschule Campus Buchs", "quarter": "Unknown Quarter", "city": "Buchs (SG)", "address": "Oberst\u00fcdtlistrasse, 9470, ", "zipcode": "9470"}, {"label": "Scuola universitaria professionale della Svizzera italiana SUPSI, Dipartimento economia aziendale, sanit\u00e0 e sociale (TI) - Manno", "lat": 46.03580093383789, "lon": 8.926456451416016, "objectclass": "TLM_NUTZUNGSAREAL", "Kategorie": "FH", "schoolshort": "SUPSI", "name": "Unknown Amenity", "quarter": "Unknown Quarter", "city": "Manno", "address": "Via Violino, 6928, ", "zipcode": "6928"}, {"label": "Scuola universitaria professionale della Svizzera italiana SUPSI, Scuola Teatro Dimitri (TI) - Terre di Pedemonte", "lat": 46.18621826171875, "lon": 8.731925010681152, "objectclass": "TLM_NUTZUNGSAREAL", "Kategorie": "FH", "schoolshort": "SUPSI", "name": "Unknown Amenity", "quarter": "Unknown Quarter", "city": "Terre di Pedemonte", "address": "Strad\u00f3n, 6653, Terre di Pedemonte", "zipcode": "6653"}, {"label": "Scuola universitaria professionale della Svizzera italiana SUPSI, Direzione (TI) - Manno", "lat": 46.031494140625, "lon": 8.924459457397461, "objectclass": "TLM_NUTZUNGSAREAL", "Kategorie": "FH", "schoolshort": "SUPSI", "name": "Unknown Amenity", "quarter": "Unknown Quarter", "city": "Manno", "address": "Via Pobiette, 6928, ", "zipcode": "6928"}, {"label": "Scuola universitaria professionale della Svizzera italiana SUPSI, Dipartimento formazione e apprendimento (TI) - Locarno", "lat": 46.1673698425293, "lon": 8.791525840759277, "objectclass": "TLM_NUTZUNGSAREAL", "Kategorie": "FH", "schoolshort": "SUPSI", "name": "Unknown Amenity", "quarter": "Locarno Monti", "city": "Locarno", "address": "Piazza di San Francesco, 6600, ", "zipcode": "6600"}, {"label": "Scuola universitaria professionale della Svizzera italiana SUPSI, Conservatorio della Svizzera italiana (TI) - Lugano", "lat": 46.00609588623047, "lon": 8.939598083496094, "objectclass": "TLM_NUTZUNGSAREAL", "Kategorie": "FH", "schoolshort": "SUPSI", "name": "Conservatorio della Svizzera Italiana", "quarter": "Molino Nuovo", "city": "Lugano", "address": "Via Soldino, 6932, ", "zipcode": "6932"}, {"label": "Berner Fachhochschule, Technik und Informatik, Standort Nidau (BE) - Nidau", "lat": 47.12734603881836, "lon": 7.237982749938965, "objectclass": "TLM_NUTZUNGSAREAL", "Kategorie": "FH", "schoolshort": "FHBE", "name": "Unknown Amenity", "quarter": "Unknown Quarter", "city": "Nidau", "address": "Schlossstrasse, 2560, ", "zipcode": "2560"}, {"label": "Berner Fachhochschule, Fachbereich Gestaltung und Kunst (BE) - Bern", "lat": 46.94668960571289, "lon": 7.39146089553833, "objectclass": "TLM_NUTZUNGSAREAL", "Kategorie": "FH", "schoolshort": "FHBE", "name": "Hochschule der K\u00fcnste Bern", "quarter": "Unknown Quarter", "city": "Bern", "address": "Fellerstrasse, 3027, Bern", "zipcode": "3027"}, {"label": "Berner Fachhochschule, Fachbereich Konservierung und Restaurierung (BE) - Bern", "lat": 46.94668960571289, "lon": 7.39146089553833, "objectclass": "TLM_NUTZUNGSAREAL", "Kategorie": "FH", "schoolshort": "FHBE", "name": "Hochschule der K\u00fcnste Bern", "quarter": "Unknown Quarter", "city": "Bern", "address": "Fellerstrasse, 3027, Bern", "zipcode": "3027"}, {"label": "Berner Fachhochschule, Fachbereich Soziale Arbeit (BE) - Bern", "lat": 46.95143508911133, "lon": 7.43532657623291, "objectclass": "TLM_NUTZUNGSAREAL", "Kategorie": "FH", "schoolshort": "FHBE", "name": "Berner Fachhochscule BFH", "quarter": "Unknown Quarter", "city": "Bern", "address": "Falkenplatz, 3012, Bern", "zipcode": "3012"}, {"label": "Berner Fachhochschule, Fachbereich Wirtschaft (BE) - Bern", "lat": 46.94231414794922, "lon": 7.440577983856201, "objectclass": "TLM_NUTZUNGSAREAL", "Kategorie": "FH", "schoolshort": "FHBE", "name": "BFH Wirtschaft", "quarter": "Sandrain", "city": "Bern", "address": "Br\u00fcckenstrasse, 3005, Bern", "zipcode": "3005"}, {"label": "Berner Fachhochschule, Architektur, Bauingenieurwesen und Maschinentechnik, Standort Burgdorf (BE) - Burgdorf", "lat": 47.0572395324707, "lon": 7.621702671051025, "objectclass": "TLM_NUTZUNGSAREAL", "Kategorie": "FH", "schoolshort": "FHBE", "name": "Berner Fachhochschule - Technik und Informatik", "quarter": "Im Choser", "city": "Burgdorf", "address": "Pestalozzistrasse, 3400, ", "zipcode": "3400"}, {"label": "Berner Fachhochschule, Fachbereich Gesundheit (BE) - Bern", "lat": 46.94878005981445, "lon": 7.42734432220459, "objectclass": "TLM_NUTZUNGSAREAL", "Kategorie": "FH", "schoolshort": "FHBE", "name": "Berner Fachhochschule Gesundheit", "quarter": "Unknown Quarter", "city": "Bern", "address": "Murtenstrasse, 3008, Bern", "zipcode": "3008"}, {"label": "Berner Fachhochschule, Fachbereich Musik (BE) - Bern", "lat": 46.95558166503906, "lon": 7.460562705993652, "objectclass": "TLM_NUTZUNGSAREAL", "Kategorie": "FH", "schoolshort": "FHBE", "name": "Hochschule der K\u00fcnste Bern - Musik und Medienkunst", "quarter": "Unknown Quarter", "city": "Bern", "address": "Kasernenstrasse, 3013, Bern", "zipcode": "3013"}, {"label": "Berner Fachhochschule, Fachbereich Musik (BE) - Bern", "lat": 46.956298828125, "lon": 7.473627090454102, "objectclass": "TLM_NUTZUNGSAREAL", "Kategorie": "FH", "schoolshort": "FHBE", "name": "Unknown Amenity", "quarter": "Unknown Quarter", "city": "Bern", "address": "Ostermundigenstrasse, 3006, Bern", "zipcode": "3006"}, {"label": "Berner Fachhochschule, Fachbereich Oper/Theater (BE) - Bern", "lat": 46.95698165893555, "lon": 7.47117805480957, "objectclass": "TLM_NUTZUNGSAREAL", "Kategorie": "FH", "schoolshort": "FHBE", "name": "Berner Fachhochschule - Hochschule der K\u00fcnste - Musik/Tanz", "quarter": "Unknown Quarter", "city": "Bern", "address": "Zikadenweg, 3006, Bern", "zipcode": "3006"}, {"label": "Berner Fachhochschule, Technik und Informatik, Standort Biel (BE) - Biel/Bienne", "lat": 47.14241027832031, "lon": 7.24470853805542, "objectclass": "TLM_NUTZUNGSAREAL", "Kategorie": "FH", "schoolshort": "FHBE", "name": "Berner Fachhochschule BFH - Technik + Informatik", "quarter": "Altstadt / Vieille Ville", "city": "Biel/Bienne", "address": "Rue de la Source / Quellgasse, 2502, ", "zipcode": "2502"}, {"label": "Berner Fachhochschule, Fachbereich Technik und Informatik (BE) - Bern", "lat": 46.96485900878906, "lon": 7.456000328063965, "objectclass": "TLM_NUTZUNGSAREAL", "Kategorie": "FH", "schoolshort": "FHBE", "name": "Unknown Amenity", "quarter": "Unknown Quarter", "city": "Bern", "address": "Wankdorffeldstrasse, 3014, Bern", "zipcode": "3014"}, {"label": "Berner Fachhochschule, Fachbereich Musik (BE) - Bern", "lat": 46.94109344482422, "lon": 7.431480407714844, "objectclass": "TLM_NUTZUNGSAREAL", "Kategorie": "FH", "schoolshort": "FHBE", "name": "Unknown Amenity", "quarter": "Unknown Quarter", "city": "Bern", "address": "Eigerplatz, 3007, Bern", "zipcode": "3007"}, {"label": "Berner Fachhochschule, Elektrotechnik und Informationstechnologie, Standort Burgdorf (BE) - Burgdorf", "lat": 47.062015533447266, "lon": 7.613674163818359, "objectclass": "TLM_NUTZUNGSAREAL", "Kategorie": "FH", "schoolshort": "FHBE", "name": "Unknown Amenity", "quarter": "Im Choser", "city": "Burgdorf", "address": "Jlcoweg, 3400, ", "zipcode": "3400"}, {"label": "Berner Fachhochschule (BE) - Zollikofen", "lat": 46.99175262451172, "lon": 7.468017101287842, "objectclass": "TLM_NUTZUNGSAREAL", "Kategorie": "FH", "schoolshort": "FHBE", "name": "Unknown Amenity", "quarter": "Unknown Quarter", "city": "Zollikofen", "address": "L\u00e4nggasse, 3052, ", "zipcode": "3052"}, {"label": "Berner Fachhochschule, Hochschule der K\u00fcnste, Schweizerisches Literaturinstitut, Standort Biel (BE) - Biel/Bienne", "lat": 47.1400032043457, "lon": 7.242646217346191, "objectclass": "TLM_NUTZUNGSAREAL", "Kategorie": "FH", "schoolshort": "FHBE", "name": "Unknown Amenity", "quarter": "Altstadt / Vieille Ville", "city": "Biel/Bienne", "address": "Faubourg du Lac / Seevorstadt, 2502, ", "zipcode": "2502"}, {"label": "Berner Fachhochschule, Architektur, Holz und Bau, Standort Biel (BE) - Biel/Bienne", "lat": 47.15830612182617, "lon": 7.276848793029785, "objectclass": "TLM_NUTZUNGSAREAL", "Kategorie": "FH", "schoolshort": "FHBE", "name": "Berner Fachhochschule BFH - Architektur, Holz und Bau", "quarter": "Boujean/B\u00f6zingen", "city": "Biel/Bienne", "address": "Route de Soleure / Solothurnstrasse, 2504, ", "zipcode": "2504"}, {"label": "Berner Fachhochschule (BE) - Burgdorf", "lat": 47.062320709228516, "lon": 7.614813804626465, "objectclass": "TLM_NUTZUNGSAREAL", "Kategorie": "FH", "schoolshort": "FHBE", "name": "Berner Fachhochschule Technik und Informatik", "quarter": "Im Choser", "city": "Burgdorf", "address": "Jlcoweg, 3400, ", "zipcode": "3400"}, {"label": "Berner Fachhochschule der K\u00fcnste, Standort Schwabstrasse (BE) - Bern", "lat": 46.94504165649414, "lon": 7.393045425415039, "objectclass": "TLM_NUTZUNGSAREAL", "Kategorie": "FH", "schoolshort": "FHBE", "name": "Unknown Amenity", "quarter": "Unknown Quarter", "city": "Bern", "address": "Schwabstrasse, 3018, Bern", "zipcode": "3018"}, {"label": "Berner Fachhochschule, Fachbereich Gesundheit (BE) - Bern", "lat": 46.94476318359375, "lon": 7.4323649406433105, "objectclass": "TLM_NUTZUNGSAREAL", "Kategorie": "FH", "schoolshort": "FHBE", "name": "Berner Fachhochschule BFH, Departement Wirtschaft, Gesundheit, Soziale Arbeit", "quarter": "Unknown Quarter", "city": "Bern", "address": "Haslerstrasse, 3007, Bern", "zipcode": "3007"}, {"label": "Z\u00fcrcher Hochschule der K\u00fcnste ZHdK, Theater der K\u00fcnste (ZH) - Z\u00fcrich", "lat": 47.37474822998047, "lon": 8.53396224975586, "objectclass": "TLM_NUTZUNGSAREAL", "Kategorie": "FH", "schoolshort": "ZHDK", "name": "Unknown Amenity", "quarter": "Altstadt", "city": "Z\u00fcrich", "address": "Gessnerallee, 8001, Z\u00fcrich", "zipcode": "8001"}, {"label": "Fachhochschule Physiotherapie Graub\u00fcnden Thim van der Laan (GR) - Landquart", "lat": 46.95452117919922, "lon": 9.559382438659668, "objectclass": "TLM_NUTZUNGSAREAL", "Kategorie": "FH", "schoolshort": "FHGR", "name": "Unknown Amenity", "quarter": "Unknown Quarter", "city": "Zizers", "address": "Weststrasse, 7302, ", "zipcode": "7302"}]