[
    {
        "name": "Minusio",
        "address": "Unknown",
        "coordinates": {
            "lat": 46.1755251,
            "lon": 8.8118196
        }
    },
    {
        "name": "Flugplatz St. Gallen-Altenrhein",
        "address": "Unknown",
        "coordinates": {
            "lat": 47.4859603,
            "lon": 9.5598603
        }
    },
    {
        "name": "Brione sopra Minusio",
        "address": "Unknown",
        "coordinates": {
            "lat": 46.1832076,
            "lon": 8.8132035
        }
    },
    {
        "name": "Feusisberg",
        "address": "Unknown",
        "coordinates": {
            "lat": 47.1867433,
            "lon": 8.7486302
        }
    },
    {
        "name": "Musikschule Binningen-Bottmingen",
        "address": "Unknown",
        "coordinates": {
            "lat": 47.5395199,
            "lon": 7.5739703
        }
    },
    {
        "name": "Temple of Music",
        "address": "Unknown",
        "coordinates": {
            "lat": 47.6522954,
            "lon": 9.1665657
        }
    },
    {
        "name": "Beausite",
        "address": "Unknown",
        "coordinates": {
            "lat": 46.6846771,
            "lon": 7.8467089
        }
    },
    {
        "name": "Schindellegi-Feusisberg",
        "address": "Unknown",
        "coordinates": {
            "lat": 47.1764857,
            "lon": 8.7091442
        }
    },
    {
        "name": "Klusi",
        "address": "Unknown",
        "coordinates": {
            "lat": 46.6307091,
            "lon": 8.0528352
        }
    },
    {
        "name": "Brusio",
        "address": "Unknown",
        "coordinates": {
            "lat": 46.2591652,
            "lon": 10.1250624
        }
    },
    {
        "name": "Promusig",
        "address": "Unknown",
        "coordinates": {
            "lat": 47.3788337,
            "lon": 8.5163135
        }
    },
    {
        "name": "Fusio",
        "address": "Unknown",
        "coordinates": {
            "lat": 47.4143333,
            "lon": 8.5403532
        }
    },
    {
        "name": "Musik- & Pianohaus Hans Ammann",
        "address": "Unknown",
        "coordinates": {
            "lat": 47.4793911,
            "lon": 8.4883803
        }
    },
    {
        "name": "Clausiusbar",
        "address": "Unknown",
        "coordinates": {
            "lat": 47.3772558,
            "lon": 8.5470004
        }
    },
    {
        "name": "Bussigny-pr\u00e8s-Lausanne Business Village",
        "address": "Unknown",
        "coordinates": {
            "lat": 46.5563199,
            "lon": 6.5612363
        }
    },
    {
        "name": "Rolle Business Center A-One",
        "address": "Unknown",
        "coordinates": {
            "lat": 46.4619953,
            "lon": 6.3252431
        }
    },
    {
        "name": "Thusis Bahnhof",
        "address": "Unknown",
        "coordinates": {
            "lat": 46.6987146,
            "lon": 9.4403192
        }
    },
    {
        "name": "Schindellegi-Feusisberg Bahnhof",
        "address": "Unknown",
        "coordinates": {
            "lat": 47.1762955,
            "lon": 8.7099551
        }
    },
    {
        "name": "Gausibrunnen",
        "address": "Unknown",
        "coordinates": {
            "lat": 47.4661741,
            "lon": 7.8115744
        }
    },
    {
        "name": "\u00c9cole de Musique de la Gruyere",
        "address": "Unknown",
        "coordinates": {
            "lat": 46.6189076,
            "lon": 7.0587299
        }
    },
    {
        "name": "Voice + Music Academy Z\u00fcrich",
        "address": "Unknown",
        "coordinates": {
            "lat": 47.3772565,
            "lon": 8.5294991
        }
    },
    {
        "name": "Maag Music Hall",
        "address": "Unknown",
        "coordinates": {
            "lat": 47.3868557,
            "lon": 8.5169154
        }
    },
    {
        "name": "Chez l'cousin",
        "address": "Unknown",
        "coordinates": {
            "lat": 46.996929,
            "lon": 6.9441654
        }
    },
    {
        "name": "Musik Hug",
        "address": "Unknown",
        "coordinates": {
            "lat": 47.3698678,
            "lon": 8.5435921
        }
    },
    {
        "name": "Billabong Sport's & Music Bar",
        "address": "Unknown",
        "coordinates": {
            "lat": 47.4843234,
            "lon": 8.702599
        }
    },
    {
        "name": "Carusio",
        "address": "Unknown",
        "coordinates": {
            "lat": 46.0822824,
            "lon": 9.0139808
        }
    },
    {
        "name": "Dusi",
        "address": "Unknown",
        "coordinates": {
            "lat": 47.2005403,
            "lon": 9.3607968
        }
    },
    {
        "name": "Musikschule",
        "address": "Unknown",
        "coordinates": {
            "lat": 47.5272334,
            "lon": 7.8148836
        }
    },
    {
        "name": "Fusion meal & coffee",
        "address": "Unknown",
        "coordinates": {
            "lat": 47.4077482,
            "lon": 8.5078578
        }
    },
    {
        "name": "La Dreusine",
        "address": "Unknown",
        "coordinates": {
            "lat": 46.2302645,
            "lon": 7.0467584
        }
    },
    {
        "name": "L.A. Music Bar",
        "address": "Unknown",
        "coordinates": {
            "lat": 47.4763831,
            "lon": 8.9147712
        }
    },
    {
        "name": "Feusisberg (Moos)",
        "address": "Unknown",
        "coordinates": {
            "lat": 47.1855924,
            "lon": 8.7475592
        }
    },
    {
        "name": "Fusion",
        "address": "Unknown",
        "coordinates": {
            "lat": 47.0983851,
            "lon": 6.8180998
        }
    },
    {
        "name": "Fusion",
        "address": "Unknown",
        "coordinates": {
            "lat": 47.098106,
            "lon": 6.817839
        }
    },
    {
        "name": "News Caf\u00e9 Musikbar",
        "address": "Unknown",
        "coordinates": {
            "lat": 47.4252404,
            "lon": 9.3740869
        }
    },
    {
        "name": "Bitli's Music & Game Shop",
        "address": "Unknown",
        "coordinates": {
            "lat": 47.3837642,
            "lon": 8.5306845
        }
    },
    {
        "name": "Fusio, Paese",
        "address": "Unknown",
        "coordinates": {
            "lat": 46.4436129,
            "lon": 8.6631644
        }
    },
    {
        "name": "Brusio",
        "address": "Unknown",
        "coordinates": {
            "lat": 46.2583616,
            "lon": 10.1260849
        }
    },
    {
        "name": "Post",
        "address": "Unknown",
        "coordinates": {
            "lat": 46.9567584,
            "lon": 8.5141105
        }
    },
    {
        "name": "Berner Fachhochschule - Hochschule der K\u00fcnste - Musik/Tanz",
        "address": "Unknown",
        "coordinates": {
            "lat": 46.9570868,
            "lon": 7.4710716
        }
    },
    {
        "name": "usine \u00e9lectrique",
        "address": "Unknown",
        "coordinates": {
            "lat": 47.096052,
            "lon": 6.8136713
        }
    },
    {
        "name": "L'atelier musical",
        "address": "Unknown",
        "coordinates": {
            "lat": 46.9944634,
            "lon": 6.9373872
        }
    },
    {
        "name": "Musikhaus Keller",
        "address": "Unknown",
        "coordinates": {
            "lat": 47.1435033,
            "lon": 8.4295394
        }
    },
    {
        "name": "Musikschule Rheinfelden",
        "address": "Unknown",
        "coordinates": {
            "lat": 47.555344,
            "lon": 7.7983754
        }
    },
    {
        "name": "Remo\u2018s Musikatelier",
        "address": "Unknown",
        "coordinates": {
            "lat": 46.7750824,
            "lon": 9.2053309
        }
    },
    {
        "name": "Musikbibliothek",
        "address": "Unknown",
        "coordinates": {
            "lat": 46.955216,
            "lon": 7.4602817
        }
    },
    {
        "name": "Feusi",
        "address": "Unknown",
        "coordinates": {
            "lat": 46.9664924,
            "lon": 7.465487
        }
    },
    {
        "name": "Musik Burri",
        "address": "Unknown",
        "coordinates": {
            "lat": 46.9358572,
            "lon": 7.4359912
        }
    },
    {
        "name": "musigb\u00f6rse",
        "address": "Unknown",
        "coordinates": {
            "lat": 46.9358356,
            "lon": 7.4352605
        }
    },
    {
        "name": "musikhaus hirsiger",
        "address": "Unknown",
        "coordinates": {
            "lat": 46.9295144,
            "lon": 7.5615063
        }
    },
    {
        "name": "Thusis-S\u00fcd",
        "address": "Unknown",
        "coordinates": {
            "lat": 46.7003757,
            "lon": 9.4471111
        }
    },
    {
        "name": "Thusis-Nord",
        "address": "Unknown",
        "coordinates": {
            "lat": 46.7165042,
            "lon": 9.4432469
        }
    },
    {
        "name": "Musik Beat Zurkinden",
        "address": "Unknown",
        "coordinates": {
            "lat": 46.9451931,
            "lon": 7.418077
        }
    },
    {
        "name": "Musikschule",
        "address": "Unknown",
        "coordinates": {
            "lat": 47.5058354,
            "lon": 8.736129
        }
    },
    {
        "name": "Musikschule",
        "address": "Unknown",
        "coordinates": {
            "lat": 47.5063959,
            "lon": 8.7340145
        }
    },
    {
        "name": "Brione s. Minusio, Chiesa",
        "address": "Unknown",
        "coordinates": {
            "lat": 46.1828409,
            "lon": 8.8143866
        }
    },
    {
        "name": "Musikinstrumenten-Sammlung Willisau",
        "address": "Unknown",
        "coordinates": {
            "lat": 47.12072,
            "lon": 7.9871597
        }
    },
    {
        "name": "Divino",
        "address": "Unknown",
        "coordinates": {
            "lat": 46.9495308,
            "lon": 7.4424611
        }
    },
    {
        "name": "Farbenshop Feusi",
        "address": "Unknown",
        "coordinates": {
            "lat": 47.4979532,
            "lon": 8.7294956
        }
    },
    {
        "name": "Museum f\u00fcr Musikautomaten",
        "address": "Unknown",
        "coordinates": {
            "lat": 47.4405834,
            "lon": 7.6617621
        }
    },
    {
        "name": "Minusio, Municipio",
        "address": "Unknown",
        "coordinates": {
            "lat": 46.1762497,
            "lon": 8.8126341
        }
    },
    {
        "name": "Minusio, Crocifisso",
        "address": "Unknown",
        "coordinates": {
            "lat": 46.1778262,
            "lon": 8.8152182
        }
    },
    {
        "name": "Minusio, Esplanade",
        "address": "Unknown",
        "coordinates": {
            "lat": 46.1785685,
            "lon": 8.8224675
        }
    },
    {
        "name": "Minusio, Via Verbano",
        "address": "Unknown",
        "coordinates": {
            "lat": 46.1749748,
            "lon": 8.8170932
        }
    },
    {
        "name": "Posta di Minusio",
        "address": "Unknown",
        "coordinates": {
            "lat": 46.1770183,
            "lon": 8.8152596
        }
    },
    {
        "name": "Minusio, Scuole Medie",
        "address": "Unknown",
        "coordinates": {
            "lat": 46.1771802,
            "lon": 8.8247551
        }
    },
    {
        "name": "Municipio Minusio",
        "address": "Unknown",
        "coordinates": {
            "lat": 46.1760916,
            "lon": 8.8126563
        }
    },
    {
        "name": "musigbistrot",
        "address": "Unknown",
        "coordinates": {
            "lat": 46.9425205,
            "lon": 7.4334896
        }
    },
    {
        "name": "Thusis, Dorf",
        "address": "Unknown",
        "coordinates": {
            "lat": 46.6947426,
            "lon": 9.4395116
        }
    },
    {
        "name": "Mus\u00e9e Baud",
        "address": "Unknown",
        "coordinates": {
            "lat": 46.8195075,
            "lon": 6.4709567
        }
    },
    {
        "name": "Musikhaus Dream Sound",
        "address": "Unknown",
        "coordinates": {
            "lat": 47.1290694,
            "lon": 8.7468191
        }
    },
    {
        "name": "Thusis",
        "address": "Unknown",
        "coordinates": {
            "lat": 46.6950417,
            "lon": 9.4411167
        }
    },
    {
        "name": "Alpe di Brusino",
        "address": "Unknown",
        "coordinates": {
            "lat": 45.9211336,
            "lon": 8.9451151
        }
    },
    {
        "name": "Kiosque \u00e0 musique",
        "address": "Unknown",
        "coordinates": {
            "lat": 46.7799266,
            "lon": 6.641176
        }
    },
    {
        "name": "Fondation du CIMA - Mus\u00e9e de bo\u00eetes \u00e0 musique et d'automates",
        "address": "Unknown",
        "coordinates": {
            "lat": 46.8210923,
            "lon": 6.5030308
        }
    },
    {
        "name": "Fusio",
        "address": "Unknown",
        "coordinates": {
            "lat": 46.4437133,
            "lon": 8.6631665
        }
    },
    {
        "name": "KV Business School",
        "address": "Unknown",
        "coordinates": {
            "lat": 47.2490617,
            "lon": 8.1833834
        }
    },
    {
        "name": "Hotel Beausite",
        "address": "Unknown",
        "coordinates": {
            "lat": 46.7023086,
            "lon": 7.8109735
        }
    },
    {
        "name": "Corbusier",
        "address": "Unknown",
        "coordinates": {
            "lat": 47.0516715,
            "lon": 6.7408651
        }
    },
    {
        "name": "St-Luc, Beausite",
        "address": "Unknown",
        "coordinates": {
            "lat": 46.2228826,
            "lon": 7.5921694
        }
    },
    {
        "name": "Corbusier",
        "address": "Unknown",
        "coordinates": {
            "lat": 46.8195521,
            "lon": 7.134878
        }
    },
    {
        "name": "Bleichiweg",
        "address": "Unknown",
        "coordinates": {
            "lat": 47.4603562,
            "lon": 7.8604023
        }
    },
    {
        "name": "Musikschule",
        "address": "Unknown",
        "coordinates": {
            "lat": 47.0553352,
            "lon": 7.6249496
        }
    },
    {
        "name": "Minusio, Paradiso di Vacanze",
        "address": "Unknown",
        "coordinates": {
            "lat": 46.1790318,
            "lon": 8.8291085
        }
    },
    {
        "name": "Minusio, Mappo",
        "address": "Unknown",
        "coordinates": {
            "lat": 46.1794339,
            "lon": 8.8427911
        }
    },
    {
        "name": "Brusino Arsizio",
        "address": "Unknown",
        "coordinates": {
            "lat": 45.9237884,
            "lon": 8.9344537
        }
    },
    {
        "name": "Brusino Arsizio, Funivia",
        "address": "Unknown",
        "coordinates": {
            "lat": 45.9246168,
            "lon": 8.9350262
        }
    },
    {
        "name": "Brusino Arsizio, Confine",
        "address": "Unknown",
        "coordinates": {
            "lat": 45.913546,
            "lon": 8.917084
        }
    },
    {
        "name": "Brione s. Minusio, B. Val Resa",
        "address": "Unknown",
        "coordinates": {
            "lat": 46.1859731,
            "lon": 8.8224627
        }
    },
    {
        "name": "Brione s. Minusio, Cimitero",
        "address": "Unknown",
        "coordinates": {
            "lat": 46.1826357,
            "lon": 8.8101876
        }
    },
    {
        "name": "Minusio, Ignifera",
        "address": "Unknown",
        "coordinates": {
            "lat": 46.180294,
            "lon": 8.8293141
        }
    },
    {
        "name": "Piazza",
        "address": "Unknown",
        "coordinates": {
            "lat": 46.1759378,
            "lon": 8.8122023
        }
    },
    {
        "name": "Minusio, Bivio Via Frizzi",
        "address": "Unknown",
        "coordinates": {
            "lat": 46.1766588,
            "lon": 8.8091757
        }
    },
    {
        "name": "Minusio, San Martino",
        "address": "Unknown",
        "coordinates": {
            "lat": 46.1790199,
            "lon": 8.810796
        }
    },
    {
        "name": "Brione s. Minusio, Albaredo",
        "address": "Unknown",
        "coordinates": {
            "lat": 46.1829637,
            "lon": 8.8198142
        }
    },
    {
        "name": "Minusio, Via ai Colli",
        "address": "Unknown",
        "coordinates": {
            "lat": 46.1800446,
            "lon": 8.812715
        }
    },
    {
        "name": "Minusio, Ai Foll",
        "address": "Unknown",
        "coordinates": {
            "lat": 46.1813315,
            "lon": 8.8148792
        }
    },
    {
        "name": "Brione s. Minusio, Ai Fanghi",
        "address": "Unknown",
        "coordinates": {
            "lat": 46.1852656,
            "lon": 8.8298247
        }
    },
    {
        "name": "Brione s. Minusio, Carmelo",
        "address": "Unknown",
        "coordinates": {
            "lat": 46.1850263,
            "lon": 8.8201466
        }
    },
    {
        "name": "Minusio, Ponte Navegna",
        "address": "Unknown",
        "coordinates": {
            "lat": 46.1787174,
            "lon": 8.8245384
        }
    },
    {
        "name": "Minusio, Moranda",
        "address": "Unknown",
        "coordinates": {
            "lat": 46.1819603,
            "lon": 8.806187
        }
    },
    {
        "name": "Minusio, Remorino",
        "address": "Unknown",
        "coordinates": {
            "lat": 46.178265,
            "lon": 8.8186464
        }
    },
    {
        "name": "Brusino Arsizio, Punta Poiana",
        "address": "Unknown",
        "coordinates": {
            "lat": 45.9347685,
            "lon": 8.9501775
        }
    },
    {
        "name": "Minusio, Centro Elisarion",
        "address": "Unknown",
        "coordinates": {
            "lat": 46.1734092,
            "lon": 8.8110024
        }
    },
    {
        "name": "Bidogno, Bivio per Carusio",
        "address": "Unknown",
        "coordinates": {
            "lat": 46.0765641,
            "lon": 8.9935744
        }
    },
    {
        "name": "Brusino Arsizio, Rondello",
        "address": "Unknown",
        "coordinates": {
            "lat": 45.9283142,
            "lon": 8.9385086
        }
    },
    {
        "name": "Thusis, Dorf",
        "address": "Unknown",
        "coordinates": {
            "lat": 46.6950184,
            "lon": 9.4393967
        }
    },
    {
        "name": "Thusis, Oberplatz",
        "address": "Unknown",
        "coordinates": {
            "lat": 46.6943264,
            "lon": 9.4363501
        }
    },
    {
        "name": "Thusis, Sch\u00fctzenweg",
        "address": "Unknown",
        "coordinates": {
            "lat": 46.704284,
            "lon": 9.440217
        }
    },
    {
        "name": "Ruvria",
        "address": "Unknown",
        "coordinates": {
            "lat": 46.6993471,
            "lon": 9.4362216
        }
    },
    {
        "name": "Thusis, Caznerwiesen",
        "address": "Unknown",
        "coordinates": {
            "lat": 46.7120928,
            "lon": 9.4391093
        }
    },
    {
        "name": "Thusis Bahnhof",
        "address": "Unknown",
        "coordinates": {
            "lat": 46.698369,
            "lon": 9.4400794
        }
    },
    {
        "name": "Brusio, Ginetto Deviazione",
        "address": "Unknown",
        "coordinates": {
            "lat": 46.2647741,
            "lon": 10.1236997
        }
    },
    {
        "name": "Brusio, Municipio",
        "address": "Unknown",
        "coordinates": {
            "lat": 46.2580481,
            "lon": 10.1264291
        }
    },
    {
        "name": "Brusio, Pergola",
        "address": "Unknown",
        "coordinates": {
            "lat": 46.2529724,
            "lon": 10.1271012
        }
    },
    {
        "name": "Brusio, Posta",
        "address": "Unknown",
        "coordinates": {
            "lat": 46.2590688,
            "lon": 10.124881
        }
    },
    {
        "name": "Musikschule Langnau",
        "address": "Unknown",
        "coordinates": {
            "lat": 46.9405095,
            "lon": 7.790254
        }
    },
    {
        "name": "Wandbrunnen \"drei musizierende Knaben\"",
        "address": "Unknown",
        "coordinates": {
            "lat": 47.3850834,
            "lon": 8.5264233
        }
    },
    {
        "name": "Musikschule Konservatorium",
        "address": "Unknown",
        "coordinates": {
            "lat": 46.9482831,
            "lon": 7.4503483
        }
    },
    {
        "name": "Freizeitmusiker",
        "address": "Unknown",
        "coordinates": {
            "lat": 47.4009899,
            "lon": 9.09926
        }
    },
    {
        "name": "Pension Beausite",
        "address": "Unknown",
        "coordinates": {
            "lat": 46.0896626,
            "lon": 7.0939438
        }
    },
    {
        "name": "LG Music Distribution",
        "address": "Unknown",
        "coordinates": {
            "lat": 46.1035214,
            "lon": 7.0778126
        }
    },
    {
        "name": "Marclay Music",
        "address": "Unknown",
        "coordinates": {
            "lat": 46.1039227,
            "lon": 7.0776817
        }
    },
    {
        "name": "Baracca Bar and Music",
        "address": "Unknown",
        "coordinates": {
            "lat": 47.4208885,
            "lon": 9.3712975
        }
    },
    {
        "name": "Modern Music",
        "address": "Unknown",
        "coordinates": {
            "lat": 47.0192975,
            "lon": 7.4529148
        }
    },
    {
        "name": "Tortuga Music Bar",
        "address": "Unknown",
        "coordinates": {
            "lat": 47.5191681,
            "lon": 8.5936511
        }
    },
    {
        "name": "Jugendmusikschule",
        "address": "Unknown",
        "coordinates": {
            "lat": 47.5605543,
            "lon": 8.8986713
        }
    },
    {
        "name": "Geisseler Fredy",
        "address": "Unknown",
        "coordinates": {
            "lat": 47.5297899,
            "lon": 8.1404104
        }
    },
    {
        "name": "Musische Kindertagesst\u00e4tte MUKITA",
        "address": "Unknown",
        "coordinates": {
            "lat": 47.3771061,
            "lon": 8.5091287
        }
    },
    {
        "name": "Schindellegi-Feusisberg",
        "address": "Unknown",
        "coordinates": {
            "lat": 47.1764362,
            "lon": 8.7090446
        }
    },
    {
        "name": "Schindellegi-Feusisberg",
        "address": "Unknown",
        "coordinates": {
            "lat": 47.1763694,
            "lon": 8.7092132
        }
    },
    {
        "name": "Thusis, Altersheim",
        "address": "Unknown",
        "coordinates": {
            "lat": 46.699575,
            "lon": 9.4413059
        }
    },
    {
        "name": "Kaffee, Confiserie Feusi",
        "address": "Unknown",
        "coordinates": {
            "lat": 47.0808492,
            "lon": 8.4404658
        }
    },
    {
        "name": "Cousimbert/K\u00e4senberg",
        "address": "Unknown",
        "coordinates": {
            "lat": 46.6919814,
            "lon": 7.1857148
        }
    },
    {
        "name": "Music Arts",
        "address": "Unknown",
        "coordinates": {
            "lat": 46.2078357,
            "lon": 6.1379421
        }
    },
    {
        "name": "Business Center B-15",
        "address": "Unknown",
        "coordinates": {
            "lat": 47.5507652,
            "lon": 7.7850967
        }
    },
    {
        "name": "Musik-Akademie",
        "address": "Unknown",
        "coordinates": {
            "lat": 47.5554489,
            "lon": 7.5871098
        }
    },
    {
        "name": "Musik-Akademie",
        "address": "Unknown",
        "coordinates": {
            "lat": 47.555654,
            "lon": 7.5867534
        }
    },
    {
        "name": "Thusis",
        "address": "Unknown",
        "coordinates": {
            "lat": 46.6972368,
            "lon": 9.4390836
        }
    },
    {
        "name": "Thusis",
        "address": "Unknown",
        "coordinates": {
            "lat": 46.6980925,
            "lon": 9.4402781
        }
    },
    {
        "name": "Thusis-Nord",
        "address": "Unknown",
        "coordinates": {
            "lat": 46.7123528,
            "lon": 9.4470731
        }
    },
    {
        "name": "Thusis-S\u00fcd",
        "address": "Unknown",
        "coordinates": {
            "lat": 46.6952833,
            "lon": 9.4449684
        }
    },
    {
        "name": "Chez mon cousin",
        "address": "Unknown",
        "coordinates": {
            "lat": 46.8064171,
            "lon": 7.154045
        }
    },
    {
        "name": "Musikschule",
        "address": "Unknown",
        "coordinates": {
            "lat": 47.4260931,
            "lon": 9.3821744
        }
    },
    {
        "name": "Chez Ma Cousine",
        "address": "Unknown",
        "coordinates": {
            "lat": 46.2225366,
            "lon": 6.1299591
        }
    },
    {
        "name": "Historisches Museum Basel \u2013 Musikmuseum",
        "address": "Unknown",
        "coordinates": {
            "lat": 47.5548029,
            "lon": 7.587842
        }
    },
    {
        "name": "Kreuzstrasse",
        "address": "Unknown",
        "coordinates": {
            "lat": 47.1825487,
            "lon": 8.7274902
        }
    },
    {
        "name": "Hotel Panorama",
        "address": "Unknown",
        "coordinates": {
            "lat": 47.1842205,
            "lon": 8.7382744
        }
    },
    {
        "name": "Feld",
        "address": "Unknown",
        "coordinates": {
            "lat": 47.1846658,
            "lon": 8.7424284
        }
    },
    {
        "name": "Feusisberg Gemeindehaus",
        "address": "Unknown",
        "coordinates": {
            "lat": 47.1872077,
            "lon": 8.7472531
        }
    },
    {
        "name": "Alterszentrum",
        "address": "Unknown",
        "coordinates": {
            "lat": 47.1874123,
            "lon": 8.7504793
        }
    },
    {
        "name": "Riedhof",
        "address": "Unknown",
        "coordinates": {
            "lat": 47.1876746,
            "lon": 8.7635062
        }
    },
    {
        "name": "Ried",
        "address": "Unknown",
        "coordinates": {
            "lat": 47.188,
            "lon": 8.7607212
        }
    },
    {
        "name": "Musical Bar",
        "address": "Unknown",
        "coordinates": {
            "lat": 47.5690036,
            "lon": 7.5973736
        }
    },
    {
        "name": "Giusi",
        "address": "Unknown",
        "coordinates": {
            "lat": 47.3916731,
            "lon": 8.0438924
        }
    },
    {
        "name": "Minusio, Paradiso di Vacanze",
        "address": "Unknown",
        "coordinates": {
            "lat": 46.1789105,
            "lon": 8.8290694
        }
    },
    {
        "name": "Minusio, Scuole Medie",
        "address": "Unknown",
        "coordinates": {
            "lat": 46.1770291,
            "lon": 8.8234361
        }
    },
    {
        "name": "Minusio, Via Verbano",
        "address": "Unknown",
        "coordinates": {
            "lat": 46.1749044,
            "lon": 8.8166152
        }
    },
    {
        "name": "Musik Amweg",
        "address": "Unknown",
        "coordinates": {
            "lat": 47.2063316,
            "lon": 7.5360409
        }
    },
    {
        "name": "Musik Melody",
        "address": "Unknown",
        "coordinates": {
            "lat": 47.2046277,
            "lon": 7.536779
        }
    },
    {
        "name": "Minusio, Mappo",
        "address": "Unknown",
        "coordinates": {
            "lat": 46.1789264,
            "lon": 8.8413628
        }
    },
    {
        "name": "Minusio, Centro Elisarion",
        "address": "Unknown",
        "coordinates": {
            "lat": 46.1733536,
            "lon": 8.810459
        }
    },
    {
        "name": "Brione s. Minusio, Chiesa",
        "address": "Unknown",
        "coordinates": {
            "lat": 46.1828476,
            "lon": 8.8142517
        }
    },
    {
        "name": "Minusio, Crocifisso",
        "address": "Unknown",
        "coordinates": {
            "lat": 46.1779781,
            "lon": 8.8152523
        }
    },
    {
        "name": "Minusio, Esplanade",
        "address": "Unknown",
        "coordinates": {
            "lat": 46.1786684,
            "lon": 8.8224241
        }
    },
    {
        "name": "Minusio, Ignifera",
        "address": "Unknown",
        "coordinates": {
            "lat": 46.1804326,
            "lon": 8.8293683
        }
    },
    {
        "name": "Minusio, Moranda",
        "address": "Unknown",
        "coordinates": {
            "lat": 46.1818823,
            "lon": 8.8062161
        }
    },
    {
        "name": "Minusio, Piazza",
        "address": "Unknown",
        "coordinates": {
            "lat": 46.1761329,
            "lon": 8.8123808
        }
    },
    {
        "name": "Minusio, Ponte Navegna",
        "address": "Unknown",
        "coordinates": {
            "lat": 46.1788052,
            "lon": 8.824487
        }
    },
    {
        "name": "Minusio, Remorino",
        "address": "Unknown",
        "coordinates": {
            "lat": 46.1783598,
            "lon": 8.8186154
        }
    },
    {
        "name": "TC Thusis",
        "address": "Unknown",
        "coordinates": {
            "lat": 46.7011665,
            "lon": 9.444994
        }
    },
    {
        "name": "Thusis, Oberplatz",
        "address": "Unknown",
        "coordinates": {
            "lat": 46.6939602,
            "lon": 9.4365947
        }
    },
    {
        "name": "Chez ma Cousine",
        "address": "Unknown",
        "coordinates": {
            "lat": 46.2075229,
            "lon": 6.1440576
        }
    },
    {
        "name": "Top Music SA",
        "address": "Unknown",
        "coordinates": {
            "lat": 46.3913986,
            "lon": 6.9355044
        }
    },
    {
        "name": "Musikschule Z\u00fcghuus",
        "address": "Unknown",
        "coordinates": {
            "lat": 47.4592415,
            "lon": 7.8614788
        }
    },
    {
        "name": "Unknown",
        "address": "Unknown",
        "coordinates": {
            "lat": 46.0986144,
            "lon": 7.2322636
        }
    },
    {
        "name": "Foppe di Pertusio",
        "address": "Unknown",
        "coordinates": {
            "lat": 46.5491236,
            "lon": 8.8018463
        }
    },
    {
        "name": "Brusino Arsizio Stazione",
        "address": "Unknown",
        "coordinates": {
            "lat": 45.9239981,
            "lon": 8.9345435
        }
    },
    {
        "name": "Ankunftshalle Airport Altenrhein",
        "address": "Unknown",
        "coordinates": {
            "lat": 47.4877351,
            "lon": 9.5524797
        }
    },
    {
        "name": "Beausite Park",
        "address": "Unknown",
        "coordinates": {
            "lat": 46.6086851,
            "lon": 7.9247768
        }
    },
    {
        "name": "Ausichtspunkt Schulhausplatz",
        "address": "Unknown",
        "coordinates": {
            "lat": 47.2358527,
            "lon": 8.1816267
        }
    },
    {
        "name": "Musical-Theater",
        "address": "Unknown",
        "coordinates": {
            "lat": 47.5692286,
            "lon": 7.5976125
        }
    },
    {
        "name": "Musical-Theater",
        "address": "Unknown",
        "coordinates": {
            "lat": 47.5688993,
            "lon": 7.5975594
        }
    },
    {
        "name": "Tanstelle Viamala Rastst\u00e4tte Thusis",
        "address": "Unknown",
        "coordinates": {
            "lat": 46.7122543,
            "lon": 9.4452742
        }
    },
    {
        "name": "Andy's Music Shop",
        "address": "Unknown",
        "coordinates": {
            "lat": 47.3453471,
            "lon": 8.6981925
        }
    },
    {
        "name": "Cousin's Barber Shop",
        "address": "Unknown",
        "coordinates": {
            "lat": 47.3533481,
            "lon": 8.4371439
        }
    },
    {
        "name": "Highspeed Music Bar",
        "address": "Unknown",
        "coordinates": {
            "lat": 47.5367883,
            "lon": 7.5717556
        }
    },
    {
        "name": "Musikschule",
        "address": "Unknown",
        "coordinates": {
            "lat": 47.5661476,
            "lon": 9.375584
        }
    },
    {
        "name": "HMmusic",
        "address": "Unknown",
        "coordinates": {
            "lat": 47.5551337,
            "lon": 8.8951256
        }
    },
    {
        "name": "Brunnen aus Musikinstrumenten",
        "address": "Unknown",
        "coordinates": {
            "lat": 46.6022115,
            "lon": 7.0961795
        }
    },
    {
        "name": "Venusia",
        "address": "Unknown",
        "coordinates": {
            "lat": 46.1934179,
            "lon": 6.1407722
        }
    },
    {
        "name": "Ecole de musique l'Avenir",
        "address": "Unknown",
        "coordinates": {
            "lat": 46.0825214,
            "lon": 7.2103761
        }
    },
    {
        "name": "Mythos Music-Club",
        "address": "Unknown",
        "coordinates": {
            "lat": 47.1414194,
            "lon": 7.3345992
        }
    },
    {
        "name": "Housi Burri",
        "address": "Unknown",
        "coordinates": {
            "lat": 46.9355819,
            "lon": 7.4797815
        }
    },
    {
        "name": "Brusino Arsizio",
        "address": "Unknown",
        "coordinates": {
            "lat": 45.9271834,
            "lon": 8.9374894
        }
    },
    {
        "name": "Brusino Arsizio, Funivia",
        "address": "Unknown",
        "coordinates": {
            "lat": 45.9243041,
            "lon": 8.9348567
        }
    },
    {
        "name": "Brusino Arsizio, Rondello",
        "address": "Unknown",
        "coordinates": {
            "lat": 45.9277641,
            "lon": 8.9384383
        }
    },
    {
        "name": "Brusino Arsizio",
        "address": "Unknown",
        "coordinates": {
            "lat": 45.9299865,
            "lon": 8.937931
        }
    },
    {
        "name": "Illusion",
        "address": "Unknown",
        "coordinates": {
            "lat": 46.2011575,
            "lon": 6.1349845
        }
    },
    {
        "name": "Grotto Alpe di Brusino",
        "address": "Unknown",
        "coordinates": {
            "lat": 45.9210012,
            "lon": 8.9451044
        }
    },
    {
        "name": "B.H.M.S. (Business Hotel & Management School)",
        "address": "Unknown",
        "coordinates": {
            "lat": 47.053438,
            "lon": 8.2931533
        }
    },
    {
        "name": "Thusis",
        "address": "Unknown",
        "coordinates": {
            "lat": 46.6985593,
            "lon": 9.4407258
        }
    },
    {
        "name": "Musique & Son",
        "address": "Unknown",
        "coordinates": {
            "lat": 46.7789546,
            "lon": 6.6391622
        }
    },
    {
        "name": "Musikschule Region Thun",
        "address": "Unknown",
        "coordinates": {
            "lat": 46.7257231,
            "lon": 7.624753
        }
    },
    {
        "name": "le p'tit Music'Hohl",
        "address": "Unknown",
        "coordinates": {
            "lat": 46.223235,
            "lon": 6.1100653
        }
    },
    {
        "name": "Kuoni Business & Cruises & Premium",
        "address": "Unknown",
        "coordinates": {
            "lat": 47.3938304,
            "lon": 8.4863853
        }
    },
    {
        "name": "Unknown",
        "address": "Unknown",
        "coordinates": {
            "lat": 46.9475247,
            "lon": 7.4475743
        }
    },
    {
        "name": "Feusisbergli",
        "address": "Unknown",
        "coordinates": {
            "lat": 47.3925582,
            "lon": 8.4705802
        }
    },
    {
        "name": "Feusisbergli",
        "address": "Unknown",
        "coordinates": {
            "lat": 47.3926536,
            "lon": 8.4712744
        }
    },
    {
        "name": "Hotel Garni Minusio",
        "address": "Unknown",
        "coordinates": {
            "lat": 46.1791113,
            "lon": 8.8226684
        }
    },
    {
        "name": "Susis Beach Bar",
        "address": "Unknown",
        "coordinates": {
            "lat": 47.1147607,
            "lon": 9.2546511
        }
    },
    {
        "name": "Lead music",
        "address": "Unknown",
        "coordinates": {
            "lat": 46.2068716,
            "lon": 6.1391745
        }
    },
    {
        "name": "SWISS Business & Senator",
        "address": "Unknown",
        "coordinates": {
            "lat": 47.4526107,
            "lon": 8.5627033
        }
    },
    {
        "name": "Servette music",
        "address": "Unknown",
        "coordinates": {
            "lat": 46.2131346,
            "lon": 6.1311861
        }
    },
    {
        "name": "MusiX",
        "address": "Unknown",
        "coordinates": {
            "lat": 47.1238592,
            "lon": 8.2446594
        }
    },
    {
        "name": "MusikZentrum Giesserei",
        "address": "Unknown",
        "coordinates": {
            "lat": 47.5047736,
            "lon": 8.7653993
        }
    },
    {
        "name": "Musikschule Riversound",
        "address": "Unknown",
        "coordinates": {
            "lat": 46.7579593,
            "lon": 7.6311588
        }
    },
    {
        "name": "Remo's Musikatelier",
        "address": "Unknown",
        "coordinates": {
            "lat": 46.7720737,
            "lon": 9.1926799
        }
    },
    {
        "name": "Andalusia",
        "address": "Unknown",
        "coordinates": {
            "lat": 47.4160113,
            "lon": 8.2674011
        }
    },
    {
        "name": "Terronia Gusto & Musica",
        "address": "Unknown",
        "coordinates": {
            "lat": 47.4309179,
            "lon": 9.3946892
        }
    },
    {
        "name": "Musikatelier",
        "address": "Unknown",
        "coordinates": {
            "lat": 47.1369414,
            "lon": 8.5835502
        }
    },
    {
        "name": "Sch\u00fctzenbrunnen",
        "address": "Unknown",
        "coordinates": {
            "lat": 46.9479232,
            "lon": 7.4464275
        }
    },
    {
        "name": "\u00c9cole de Musique de la Vall\u00e9e de Joux",
        "address": "Unknown",
        "coordinates": {
            "lat": 46.6104317,
            "lon": 6.2341631
        }
    },
    {
        "name": "Coiffure Susi",
        "address": "Unknown",
        "coordinates": {
            "lat": 47.4144941,
            "lon": 8.1646326
        }
    },
    {
        "name": "Thusis",
        "address": "Unknown",
        "coordinates": {
            "lat": 46.6982369,
            "lon": 9.4405157
        }
    },
    {
        "name": "B\u00e4ckerst\u00fcbli Bistro Musikbar",
        "address": "Unknown",
        "coordinates": {
            "lat": 47.6303538,
            "lon": 9.2263401
        }
    },
    {
        "name": "La Bo\u00eete \u00e0 Musique",
        "address": "Unknown",
        "coordinates": {
            "lat": 46.6382194,
            "lon": 6.635668
        }
    },
    {
        "name": "T\u00e4usi",
        "address": "Unknown",
        "coordinates": {
            "lat": 47.3556526,
            "lon": 8.9225193
        }
    },
    {
        "name": "Institut Musikwissenschaft",
        "address": "Unknown",
        "coordinates": {
            "lat": 46.9557169,
            "lon": 7.4356697
        }
    },
    {
        "name": "Exklusive Luftbilder - Aerial Photography",
        "address": "Unknown",
        "coordinates": {
            "lat": 47.4416667,
            "lon": 8.6750641
        }
    },
    {
        "name": "Conf\u00e9rence des Nations unies sur le commerce et le d\u00e9veloppement",
        "address": "Unknown",
        "coordinates": {
            "lat": 46.2281884,
            "lon": 6.1419399
        }
    },
    {
        "name": "VintageMusic",
        "address": "Unknown",
        "coordinates": {
            "lat": 47.1427198,
            "lon": 7.2467336
        }
    },
    {
        "name": "USI",
        "address": "Unknown",
        "coordinates": {
            "lat": 46.0106045,
            "lon": 8.9580065
        }
    },
    {
        "name": "Feusiguot",
        "address": "Unknown",
        "coordinates": {
            "lat": 47.1222824,
            "lon": 8.9016942
        }
    },
    {
        "name": "MHM-Musik GmbH",
        "address": "Unknown",
        "coordinates": {
            "lat": 46.9014343,
            "lon": 7.6607108
        }
    },
    {
        "name": "Hausi",
        "address": "Unknown",
        "coordinates": {
            "lat": 47.0457557,
            "lon": 9.4382991
        }
    },
    {
        "name": "Tusinge",
        "address": "Unknown",
        "coordinates": {
            "lat": 46.473897,
            "lon": 6.8962129
        }
    },
    {
        "name": "Marta",
        "address": "Unknown",
        "coordinates": {
            "lat": 46.9481458,
            "lon": 7.451843
        }
    },
    {
        "name": "Susi\u2018s Bistro",
        "address": "Unknown",
        "coordinates": {
            "lat": 47.6805769,
            "lon": 8.6190697
        }
    },
    {
        "name": "Musikschule",
        "address": "Unknown",
        "coordinates": {
            "lat": 47.4594295,
            "lon": 7.8610614
        }
    },
    {
        "name": "Beausite",
        "address": "Unknown",
        "coordinates": {
            "lat": 46.54144,
            "lon": 6.5802549
        }
    },
    {
        "name": "Oberschlusi",
        "address": "Unknown",
        "coordinates": {
            "lat": 46.6777649,
            "lon": 7.5454878
        }
    },
    {
        "name": "Boullard Musique",
        "address": "Unknown",
        "coordinates": {
            "lat": 46.504507,
            "lon": 6.4852591
        }
    },
    {
        "name": "Boullard Musique",
        "address": "Unknown",
        "coordinates": {
            "lat": 46.5100236,
            "lon": 6.4949387
        }
    },
    {
        "name": "Regus Business Center - Luzern",
        "address": "Unknown",
        "coordinates": {
            "lat": 47.0536086,
            "lon": 8.3071496
        }
    },
    {
        "name": "Cusi\u00e8",
        "address": "Unknown",
        "coordinates": {
            "lat": 46.4505558,
            "lon": 9.0408387
        }
    },
    {
        "name": "Tout pour la Musique",
        "address": "Unknown",
        "coordinates": {
            "lat": 46.5379316,
            "lon": 6.581921
        }
    },
    {
        "name": "Musikschule Z\u00fcrcher Oberland",
        "address": "Unknown",
        "coordinates": {
            "lat": 47.3986879,
            "lon": 8.7746719
        }
    },
    {
        "name": "Musikklub Mehrspur",
        "address": "Unknown",
        "coordinates": {
            "lat": 47.3916891,
            "lon": 8.5118095
        }
    },
    {
        "name": "Mauz Music-Club",
        "address": "Unknown",
        "coordinates": {
            "lat": 47.131024,
            "lon": 8.7449952
        }
    },
    {
        "name": "Blue Wonder musikhaus",
        "address": "Unknown",
        "coordinates": {
            "lat": 47.426746,
            "lon": 9.3753966
        }
    },
    {
        "name": "hermo Exklusive Herrenmode",
        "address": "Unknown",
        "coordinates": {
            "lat": 47.4240177,
            "lon": 9.3759133
        }
    },
    {
        "name": "Exclusive",
        "address": "Unknown",
        "coordinates": {
            "lat": 46.1554888,
            "lon": 6.0945599
        }
    },
    {
        "name": "Exclusive Bikes",
        "address": "Unknown",
        "coordinates": {
            "lat": 46.8764968,
            "lon": 9.5365453
        }
    },
    {
        "name": "Musical Grill",
        "address": "Unknown",
        "coordinates": {
            "lat": 47.5687224,
            "lon": 7.597405
        }
    },
    {
        "name": "Musikpalast",
        "address": "Unknown",
        "coordinates": {
            "lat": 47.5761246,
            "lon": 7.5876298
        }
    },
    {
        "name": "Krompholz",
        "address": "Unknown",
        "coordinates": {
            "lat": 46.9455239,
            "lon": 7.4293223
        }
    },
    {
        "name": "Music City Soldini",
        "address": "Unknown",
        "coordinates": {
            "lat": 46.1691421,
            "lon": 8.795132
        }
    },
    {
        "name": "Magusii",
        "address": "Unknown",
        "coordinates": {
            "lat": 46.3039514,
            "lon": 8.0407909
        }
    },
    {
        "name": "Multimusics",
        "address": "Unknown",
        "coordinates": {
            "lat": 45.8349757,
            "lon": 9.0280747
        }
    },
    {
        "name": "Cappella della Vergine Ausiliatrice",
        "address": "Unknown",
        "coordinates": {
            "lat": 45.8739462,
            "lon": 8.9699007
        }
    },
    {
        "name": "R\u00f6thlisberger",
        "address": "Unknown",
        "coordinates": {
            "lat": 46.9261751,
            "lon": 7.4554287
        }
    },
    {
        "name": "Lousine",
        "address": "Unknown",
        "coordinates": {
            "lat": 46.1774751,
            "lon": 7.1377764
        }
    },
    {
        "name": "Musikgesellschaft Interlaken",
        "address": "Unknown",
        "coordinates": {
            "lat": 46.6801403,
            "lon": 7.8525247
        }
    },
    {
        "name": "Aveda exclusive Salon",
        "address": "Unknown",
        "coordinates": {
            "lat": 47.3639935,
            "lon": 8.533495
        }
    },
    {
        "name": "Musikschule",
        "address": "Unknown",
        "coordinates": {
            "lat": 47.0553658,
            "lon": 7.6249277
        }
    },
    {
        "name": "Chancy-Usine",
        "address": "Unknown",
        "coordinates": {
            "lat": 46.1565837,
            "lon": 5.9811467
        }
    },
    {
        "name": "MMS Music'n Movies System",
        "address": "Unknown",
        "coordinates": {
            "lat": 47.2349496,
            "lon": 8.7548062
        }
    },
    {
        "name": "Musikpunkt",
        "address": "Unknown",
        "coordinates": {
            "lat": 47.1732361,
            "lon": 8.2853605
        }
    },
    {
        "name": "Fusio",
        "address": "Unknown",
        "coordinates": {
            "lat": 46.4440325,
            "lon": 8.6632201
        }
    },
    {
        "name": "Musikschule Region G\u00fcrbetal",
        "address": "Unknown",
        "coordinates": {
            "lat": 46.8918665,
            "lon": 7.4990212
        }
    },
    {
        "name": "Montreux School Of Business",
        "address": "Unknown",
        "coordinates": {
            "lat": 46.4223064,
            "lon": 6.925426
        }
    },
    {
        "name": "Club Lusitano",
        "address": "Unknown",
        "coordinates": {
            "lat": 46.5393012,
            "lon": 6.5838163
        }
    },
    {
        "name": "Tzeusier",
        "address": "Unknown",
        "coordinates": {
            "lat": 46.3493277,
            "lon": 7.4434693
        }
    },
    {
        "name": "Brusino Arsizio Funivia",
        "address": "Unknown",
        "coordinates": {
            "lat": 45.9245148,
            "lon": 8.9344092
        }
    },
    {
        "name": "M\u00fcller",
        "address": "Unknown",
        "coordinates": {
            "lat": 46.9491906,
            "lon": 7.4450558
        }
    },
    {
        "name": "BNC Business Network Communications SA",
        "address": "Unknown",
        "coordinates": {
            "lat": 46.5820313,
            "lon": 6.5995135
        }
    },
    {
        "name": "BNC Business Network Communications AG",
        "address": "Unknown",
        "coordinates": {
            "lat": 47.0198743,
            "lon": 7.5026388
        }
    },
    {
        "name": "Bellinzona, Business Center",
        "address": "Unknown",
        "coordinates": {
            "lat": 46.1918667,
            "lon": 9.013435
        }
    },
    {
        "name": "Cappella della Vergine Ausiliatrice",
        "address": "Unknown",
        "coordinates": {
            "lat": 45.8795924,
            "lon": 8.9724562
        }
    },
    {
        "name": "Brusino Arsizio, S. Giorgio",
        "address": "Unknown",
        "coordinates": {
            "lat": 45.921525,
            "lon": 8.9297694
        }
    },
    {
        "name": "Brusino Arsizio, Casa Diana",
        "address": "Unknown",
        "coordinates": {
            "lat": 45.9177489,
            "lon": 8.9260888
        }
    },
    {
        "name": "Tennis Club Brusino Arsizio",
        "address": "Unknown",
        "coordinates": {
            "lat": 45.9214444,
            "lon": 8.9301429
        }
    },
    {
        "name": "Brione s. Minusio, Albaredo",
        "address": "Unknown",
        "coordinates": {
            "lat": 46.1831282,
            "lon": 8.8191448
        }
    },
    {
        "name": "Minusio, Ai Foll",
        "address": "Unknown",
        "coordinates": {
            "lat": 46.1814057,
            "lon": 8.8148346
        }
    },
    {
        "name": "Minusio, Bivio Via Frizzi",
        "address": "Unknown",
        "coordinates": {
            "lat": 46.1766931,
            "lon": 8.8091731
        }
    },
    {
        "name": "Minusio, San Martino",
        "address": "Unknown",
        "coordinates": {
            "lat": 46.1793718,
            "lon": 8.8105156
        }
    },
    {
        "name": "Minusio, Via ai Colli",
        "address": "Unknown",
        "coordinates": {
            "lat": 46.1802587,
            "lon": 8.8118409
        }
    },
    {
        "name": "Business & Karriere Coaching Brennemann",
        "address": "Unknown",
        "coordinates": {
            "lat": 47.2784012,
            "lon": 8.4544203
        }
    },
    {
        "name": "Oberaargauische Musikschule Langenthal",
        "address": "Unknown",
        "coordinates": {
            "lat": 47.2099008,
            "lon": 7.7847634
        }
    },
    {
        "name": "Musital",
        "address": "Unknown",
        "coordinates": {
            "lat": 47.5662685,
            "lon": 8.3068913
        }
    },
    {
        "name": "Street Music",
        "address": "Unknown",
        "coordinates": {
            "lat": 46.1688839,
            "lon": 8.761036
        }
    },
    {
        "name": "Neusille",
        "address": "Unknown",
        "coordinates": {
            "lat": 46.4392055,
            "lon": 7.0628331
        }
    },
    {
        "name": "Regional Bibliothek Thusis",
        "address": "Unknown",
        "coordinates": {
            "lat": 46.6963526,
            "lon": 9.4396322
        }
    },
    {
        "name": "4 Music Entertainment AG",
        "address": "Unknown",
        "coordinates": {
            "lat": 47.391495,
            "lon": 8.7440922
        }
    },
    {
        "name": "A3 Music Park",
        "address": "Unknown",
        "coordinates": {
            "lat": 47.5016754,
            "lon": 8.0333929
        }
    },
    {
        "name": "GVN Music",
        "address": "Unknown",
        "coordinates": {
            "lat": 46.5104119,
            "lon": 6.4956281
        }
    },
    {
        "name": "Le Cerneux-Veusil",
        "address": "Unknown",
        "coordinates": {
            "lat": 47.184604,
            "lon": 6.957368
        }
    },
    {
        "name": "WOKO Housing Office",
        "address": "Unknown",
        "coordinates": {
            "lat": 47.3817676,
            "lon": 8.5450226
        }
    },
    {
        "name": "Music Door",
        "address": "Unknown",
        "coordinates": {
            "lat": 46.0114071,
            "lon": 8.9594482
        }
    },
    {
        "name": "Housi Knecht, Skulpturenpark und Galerie",
        "address": "Unknown",
        "coordinates": {
            "lat": 46.8965363,
            "lon": 7.5459633
        }
    },
    {
        "name": "Baff Music",
        "address": "Unknown",
        "coordinates": {
            "lat": 46.6900878,
            "lon": 7.671415
        }
    },
    {
        "name": "Musik & Form",
        "address": "Unknown",
        "coordinates": {
            "lat": 47.3652481,
            "lon": 8.5549314
        }
    },
    {
        "name": "Schl\u00fcssel \"Musigbeiz\"",
        "address": "Unknown",
        "coordinates": {
            "lat": 47.3770942,
            "lon": 9.5407617
        }
    },
    {
        "name": "Exclusiv Bar",
        "address": "Unknown",
        "coordinates": {
            "lat": 47.5120286,
            "lon": 9.4283272
        }
    },
    {
        "name": "Musik G\u00fcnthart",
        "address": "Unknown",
        "coordinates": {
            "lat": 47.4136737,
            "lon": 8.4481718
        }
    },
    {
        "name": "Nurissa Shop / Nespresso Business Solutions",
        "address": "Unknown",
        "coordinates": {
            "lat": 47.1603937,
            "lon": 7.2852893
        }
    },
    {
        "name": "Probelokal, Musikgesellschaft Sennwald",
        "address": "Unknown",
        "coordinates": {
            "lat": 47.2574907,
            "lon": 9.5038087
        }
    },
    {
        "name": "Music-Atelier",
        "address": "Unknown",
        "coordinates": {
            "lat": 47.4780471,
            "lon": 9.4934996
        }
    },
    {
        "name": "BrockiShop Thusis",
        "address": "Unknown",
        "coordinates": {
            "lat": 46.703149,
            "lon": 9.4424153
        }
    },
    {
        "name": "Fischer Musikhaus AG",
        "address": "Unknown",
        "coordinates": {
            "lat": 46.8482176,
            "lon": 9.5313764
        }
    },
    {
        "name": "Music & art",
        "address": "Unknown",
        "coordinates": {
            "lat": 47.0458708,
            "lon": 8.3059236
        }
    },
    {
        "name": "Institut f\u00fcr Musikp\u00e4dagogik",
        "address": "Unknown",
        "coordinates": {
            "lat": 47.0473835,
            "lon": 8.3042319
        }
    },
    {
        "name": "Winterthurer Institut f\u00fcr aktuelle Musik WIAM",
        "address": "Unknown",
        "coordinates": {
            "lat": 47.4986186,
            "lon": 8.7327291
        }
    },
    {
        "name": "Musik W. & M. Keclik",
        "address": "Unknown",
        "coordinates": {
            "lat": 47.4229931,
            "lon": 9.3752119
        }
    },
    {
        "name": "Musik Baur",
        "address": "Unknown",
        "coordinates": {
            "lat": 47.5042209,
            "lon": 8.7534362
        }
    },
    {
        "name": "Schindler Digital Business AG",
        "address": "Unknown",
        "coordinates": {
            "lat": 47.0912733,
            "lon": 8.3558721
        }
    },
    {
        "name": "Husi Bierhaus",
        "address": "Unknown",
        "coordinates": {
            "lat": 46.6853445,
            "lon": 7.8551079
        }
    },
    {
        "name": "Data Quest AG Corporate Business Unit",
        "address": "Unknown",
        "coordinates": {
            "lat": 47.4045232,
            "lon": 8.6059063
        }
    },
    {
        "name": "Busio",
        "address": "Unknown",
        "coordinates": {
            "lat": 46.106932,
            "lon": 8.9558635
        }
    },
    {
        "name": "Musik Althaus AG",
        "address": "Unknown",
        "coordinates": {
            "lat": 46.8185209,
            "lon": 7.3443654
        }
    },
    {
        "name": "Musikschule - \u00c9cole de Musique",
        "address": "Unknown",
        "coordinates": {
            "lat": 47.1343606,
            "lon": 7.243673
        }
    },
    {
        "name": "Musikschule Biel / Ecole de Musique Bienne",
        "address": "Unknown",
        "coordinates": {
            "lat": 47.1372941,
            "lon": 7.2418274
        }
    },
    {
        "name": "Robert Musil",
        "address": "Unknown",
        "coordinates": {
            "lat": 46.2021617,
            "lon": 6.1366633
        }
    },
    {
        "name": "Musikschule Freienbach",
        "address": "Unknown",
        "coordinates": {
            "lat": 47.2036822,
            "lon": 8.7592332
        }
    },
    {
        "name": "Lusitana Pt",
        "address": "Unknown",
        "coordinates": {
            "lat": 46.1904242,
            "lon": 6.1342649
        }
    },
    {
        "name": "TU Th\u00e9\u00e2tre de l'usine",
        "address": "Unknown",
        "coordinates": {
            "lat": 46.2039034,
            "lon": 6.1358056
        }
    },
    {
        "name": "Klusi",
        "address": "Unknown",
        "coordinates": {
            "lat": 46.6308116,
            "lon": 8.0526999
        }
    },
    {
        "name": "Klusi",
        "address": "Unknown",
        "coordinates": {
            "lat": 46.6307376,
            "lon": 8.0528629
        }
    },
    {
        "name": "Alpe Pertusio",
        "address": "Unknown",
        "coordinates": {
            "lat": 46.5524147,
            "lon": 8.8030772
        }
    },
    {
        "name": "Clim Diffusion SA",
        "address": "Unknown",
        "coordinates": {
            "lat": 46.1873756,
            "lon": 6.1289429
        }
    },
    {
        "name": "B.H.M.S Business & Hotel Management School",
        "address": "Unknown",
        "coordinates": {
            "lat": 47.0516824,
            "lon": 8.2987863
        }
    },
    {
        "name": "Musik Leumann",
        "address": "Unknown",
        "coordinates": {
            "lat": 47.4778648,
            "lon": 9.4925222
        }
    },
    {
        "name": "Wachter-Rutz & Co. Musikhaus & Musikschule",
        "address": "Unknown",
        "coordinates": {
            "lat": 47.4788316,
            "lon": 9.4862838
        }
    },
    {
        "name": "Musikschule F\u00fcrstenland - Musikschulzentrum",
        "address": "Unknown",
        "coordinates": {
            "lat": 47.4154192,
            "lon": 9.2527139
        }
    },
    {
        "name": "Transfusion Interr\u00e9gionale CRS, Site de Bienne / Interregionale Blutspende SRK, Zentrum Biel",
        "address": "Unknown",
        "coordinates": {
            "lat": 47.1360631,
            "lon": 7.2462432
        }
    },
    {
        "name": "Musikpark A2 Basel",
        "address": "Unknown",
        "coordinates": {
            "lat": 47.5379779,
            "lon": 7.6182246
        }
    },
    {
        "name": "Musikhaus zum R\u00fcbenloch",
        "address": "Unknown",
        "coordinates": {
            "lat": 46.9279885,
            "lon": 7.1174651
        }
    },
    {
        "name": "Brunnenbecken, Figurenpaar \"Kinder\" auf Stele",
        "address": "Unknown",
        "coordinates": {
            "lat": 47.4121621,
            "lon": 8.5150004
        }
    },
    {
        "name": "Musikautomaten",
        "address": "Unknown",
        "coordinates": {
            "lat": 47.4399477,
            "lon": 7.6625322
        }
    },
    {
        "name": "Kirchenmusikschule St.Gallen \"centrum dkms\"",
        "address": "Unknown",
        "coordinates": {
            "lat": 47.4222377,
            "lon": 9.3763213
        }
    },
    {
        "name": "Alphubel AG;Alphubel Taxi;Alphubel Limousine Service",
        "address": "Unknown",
        "coordinates": {
            "lat": 46.0681165,
            "lon": 7.7761603
        }
    },
    {
        "name": "Musikschule unisono bistro",
        "address": "Unknown",
        "coordinates": {
            "lat": 46.7803177,
            "lon": 7.6347665
        }
    },
    {
        "name": "Klingendes Museum Bern",
        "address": "Unknown",
        "coordinates": {
            "lat": 46.9481247,
            "lon": 7.4492337
        }
    },
    {
        "name": "Hair Exclusive",
        "address": "Unknown",
        "coordinates": {
            "lat": 46.9566317,
            "lon": 7.4323234
        }
    },
    {
        "name": "Thusis",
        "address": "Unknown",
        "coordinates": {
            "lat": 46.6974673,
            "lon": 9.4431803
        }
    },
    {
        "name": "Haute \u00e9cole de musique \u2013 Fribourg",
        "address": "Unknown",
        "coordinates": {
            "lat": 46.8123236,
            "lon": 7.1408459
        }
    },
    {
        "name": "Hexenmusik im Maiengr\u00fcn",
        "address": "Unknown",
        "coordinates": {
            "lat": 47.3403314,
            "lon": 8.3126561
        }
    },
    {
        "name": "Fontaine de la Jalousie",
        "address": "Unknown",
        "coordinates": {
            "lat": 46.5181599,
            "lon": 6.4556603
        }
    },
    {
        "name": "Coiffeur Exclusiv",
        "address": "Unknown",
        "coordinates": {
            "lat": 47.4059204,
            "lon": 9.6338244
        }
    },
    {
        "name": "Le smoke club",
        "address": "Unknown",
        "coordinates": {
            "lat": 46.8669172,
            "lon": 7.0131317
        }
    },
    {
        "name": "Brusino Arsizio, Funivia",
        "address": "Unknown",
        "coordinates": {
            "lat": 45.9243334,
            "lon": 8.9348333
        }
    },
    {
        "name": "Alpe di Brusino",
        "address": "Unknown",
        "coordinates": {
            "lat": 45.9210459,
            "lon": 8.9450397
        }
    },
    {
        "name": "Hausihof",
        "address": "Unknown",
        "coordinates": {
            "lat": 47.505479,
            "lon": 7.7703743
        }
    },
    {
        "name": "Musikhaus Thurnheer",
        "address": "Unknown",
        "coordinates": {
            "lat": 47.3732022,
            "lon": 8.5448102
        }
    },
    {
        "name": "Musikhaus Bucher",
        "address": "Unknown",
        "coordinates": {
            "lat": 47.4136557,
            "lon": 8.5452728
        }
    },
    {
        "name": "Giusi's Ristorante Pizzeria",
        "address": "Unknown",
        "coordinates": {
            "lat": 47.3637686,
            "lon": 8.5545452
        }
    },
    {
        "name": "Palazzo Beat Club (Livemusik)",
        "address": "Unknown",
        "coordinates": {
            "lat": 46.847215,
            "lon": 9.527391
        }
    },
    {
        "name": "Orange Business Services",
        "address": "Unknown",
        "coordinates": {
            "lat": 46.2085641,
            "lon": 6.1239404
        }
    },
    {
        "name": "Fodge Music School",
        "address": "Unknown",
        "coordinates": {
            "lat": 46.7824367,
            "lon": 6.634949
        }
    },
    {
        "name": "Audio-Exklusiv",
        "address": "Unknown",
        "coordinates": {
            "lat": 47.0275566,
            "lon": 8.2957776
        }
    },
    {
        "name": "Musik Walt",
        "address": "Unknown",
        "coordinates": {
            "lat": 47.3768037,
            "lon": 9.5378658
        }
    },
    {
        "name": "Musik Wieland",
        "address": "Unknown",
        "coordinates": {
            "lat": 46.8942159,
            "lon": 8.2470596
        }
    },
    {
        "name": "Musikschule M\u00fcnchenbuchsee",
        "address": "Unknown",
        "coordinates": {
            "lat": 47.0143065,
            "lon": 7.4417777
        }
    },
    {
        "name": "Lakeside Business Center AG",
        "address": "Unknown",
        "coordinates": {
            "lat": 47.172899,
            "lon": 8.512237
        }
    },
    {
        "name": "Piano-Music",
        "address": "Unknown",
        "coordinates": {
            "lat": 47.3898891,
            "lon": 8.6167162
        }
    },
    {
        "name": "Musikschule Z\u00fcrcher Oberland",
        "address": "Unknown",
        "coordinates": {
            "lat": 47.3207402,
            "lon": 8.7955031
        }
    },
    {
        "name": "Musik Haag",
        "address": "Unknown",
        "coordinates": {
            "lat": 47.3208542,
            "lon": 8.7952363
        }
    },
    {
        "name": "Music Pfister AG",
        "address": "Unknown",
        "coordinates": {
            "lat": 47.3208701,
            "lon": 8.7948474
        }
    },
    {
        "name": "Fredy Cousin Goldschmiedatelier",
        "address": "Unknown",
        "coordinates": {
            "lat": 47.3632845,
            "lon": 8.3667939
        }
    },
    {
        "name": "Musix AG",
        "address": "Unknown",
        "coordinates": {
            "lat": 47.5252725,
            "lon": 7.7422262
        }
    },
    {
        "name": "LIEBLINGSST\u00dcCK Store Davos",
        "address": "Unknown",
        "coordinates": {
            "lat": 46.7948579,
            "lon": 9.8210206
        }
    },
    {
        "name": "Musik Kollegger",
        "address": "Unknown",
        "coordinates": {
            "lat": 46.6795388,
            "lon": 9.6445792
        }
    },
    {
        "name": "Feusisbergli",
        "address": "Unknown",
        "coordinates": {
            "lat": 47.3925315,
            "lon": 8.4706297
        }
    },
    {
        "name": "Feusisbergli",
        "address": "Unknown",
        "coordinates": {
            "lat": 47.3926803,
            "lon": 8.471313
        }
    },
    {
        "name": "Musik Biedermann",
        "address": "Unknown",
        "coordinates": {
            "lat": 47.3997064,
            "lon": 8.4141578
        }
    },
    {
        "name": "Eusin",
        "address": "Unknown",
        "coordinates": {
            "lat": 46.3003914,
            "lon": 6.864241
        }
    },
    {
        "name": "An Chinese Business School",
        "address": "Unknown",
        "coordinates": {
            "lat": 47.3787303,
            "lon": 8.5437277
        }
    },
    {
        "name": "HEMU - Haute \u00c9cole de Musique",
        "address": "Unknown",
        "coordinates": {
            "lat": 46.5213563,
            "lon": 6.6264827
        }
    },
    {
        "name": "Musikschule",
        "address": "Unknown",
        "coordinates": {
            "lat": 47.5610162,
            "lon": 8.8988769
        }
    },
    {
        "name": "Buffolino Clubhaus da Giusi",
        "address": "Unknown",
        "coordinates": {
            "lat": 47.3511824,
            "lon": 8.4329004
        }
    },
    {
        "name": "musik & form",
        "address": "Unknown",
        "coordinates": {
            "lat": 47.3735752,
            "lon": 8.5266757
        }
    },
    {
        "name": "Viamala Rastst\u00e4tte Thusis",
        "address": "Unknown",
        "coordinates": {
            "lat": 46.712033,
            "lon": 9.4454835
        }
    },
    {
        "name": "Krystal Limousines",
        "address": "Unknown",
        "coordinates": {
            "lat": 47.0280483,
            "lon": 8.2997121
        }
    },
    {
        "name": "Giusi's Bistro",
        "address": "Unknown",
        "coordinates": {
            "lat": 47.568892,
            "lon": 9.1092544
        }
    },
    {
        "name": "Business Titans / Midnight Club",
        "address": "Unknown",
        "coordinates": {
            "lat": 47.410636,
            "lon": 8.4050639
        }
    },
    {
        "name": "Vereinslokal der Harmoniemusik Netstal",
        "address": "Unknown",
        "coordinates": {
            "lat": 47.0655527,
            "lon": 9.0598972
        }
    },
    {
        "name": "AMA Asian Fusion",
        "address": "Unknown",
        "coordinates": {
            "lat": 47.1400303,
            "lon": 7.2461166
        }
    },
    {
        "name": "Transfusion Interr\u00e9gionale CRS",
        "address": "Unknown",
        "coordinates": {
            "lat": 46.5425125,
            "lon": 6.6607855
        }
    },
    {
        "name": "Stylroc Diffusion S.A.",
        "address": "Unknown",
        "coordinates": {
            "lat": 46.7932171,
            "lon": 6.6198231
        }
    },
    {
        "name": "Blasmusikcenter Gossau",
        "address": "Unknown",
        "coordinates": {
            "lat": 47.4116394,
            "lon": 9.2442106
        }
    },
    {
        "name": "L'Argousier",
        "address": "Unknown",
        "coordinates": {
            "lat": 46.0972482,
            "lon": 7.2217104
        }
    },
    {
        "name": "Cousin\u2018s Barber Shop",
        "address": "Unknown",
        "coordinates": {
            "lat": 47.4274461,
            "lon": 8.6871689
        }
    },
    {
        "name": "Z\u00fcrich Clausiusstrasse",
        "address": "Unknown",
        "coordinates": {
            "lat": 47.379308,
            "lon": 8.5458737
        }
    },
    {
        "name": "Kleintierpraxis Susi & Strolch",
        "address": "Unknown",
        "coordinates": {
            "lat": 47.3245594,
            "lon": 8.4691216
        }
    },
    {
        "name": "Abusitz River Haus",
        "address": "Unknown",
        "coordinates": {
            "lat": 46.0118229,
            "lon": 7.7454418
        }
    },
    {
        "name": "/restaurant Lusi",
        "address": "Unknown",
        "coordinates": {
            "lat": 46.0200113,
            "lon": 7.7466591
        }
    },
    {
        "name": "Heaven Music Club",
        "address": "Unknown",
        "coordinates": {
            "lat": 47.4533128,
            "lon": 8.9375144
        }
    },
    {
        "name": "Jugendmusikschule",
        "address": "Unknown",
        "coordinates": {
            "lat": 47.5604066,
            "lon": 8.8987182
        }
    },
    {
        "name": "Swisscom Restaurant Business Park",
        "address": "Unknown",
        "coordinates": {
            "lat": 46.9328873,
            "lon": 7.4180726
        }
    },
    {
        "name": "Music Lounge",
        "address": "Unknown",
        "coordinates": {
            "lat": 46.4986445,
            "lon": 9.8411889
        }
    },
    {
        "name": "Pavillon Le Corbusier",
        "address": "Unknown",
        "coordinates": {
            "lat": 47.356045,
            "lon": 8.5510181
        }
    },
    {
        "name": "Wohnsiedlung f\u00fcr Studierende Eichhof",
        "address": "Unknown",
        "coordinates": {
            "lat": 47.0421946,
            "lon": 8.2972824
        }
    },
    {
        "name": "Musikhaus Tr\u00fcb",
        "address": "Unknown",
        "coordinates": {
            "lat": 47.3711924,
            "lon": 8.5154313
        }
    },
    {
        "name": "Jugendmusikschule",
        "address": "Unknown",
        "coordinates": {
            "lat": 47.2312046,
            "lon": 8.8341344
        }
    },
    {
        "name": "AKAD Business Z\u00fcrich",
        "address": "Unknown",
        "coordinates": {
            "lat": 47.4154229,
            "lon": 8.543807
        }
    },
    {
        "name": "Krebs Musikhaus",
        "address": "Unknown",
        "coordinates": {
            "lat": 47.1417338,
            "lon": 7.2473569
        }
    },
    {
        "name": "Kindergarten Feusiberg",
        "address": "Unknown",
        "coordinates": {
            "lat": 47.1881602,
            "lon": 8.7477247
        }
    },
    {
        "name": "Schulhaus Feusiberg",
        "address": "Unknown",
        "coordinates": {
            "lat": 47.1884956,
            "lon": 8.7487815
        }
    },
    {
        "name": "Gemeinde Feusiberg",
        "address": "Unknown",
        "coordinates": {
            "lat": 47.1870199,
            "lon": 8.7474068
        }
    },
    {
        "name": "Banjo & Gitarrenschule 'Musig-H\u00fcsli'",
        "address": "Unknown",
        "coordinates": {
            "lat": 47.367955,
            "lon": 8.7830693
        }
    },
    {
        "name": "Musikschule Thalwil-Oberrieden",
        "address": "Unknown",
        "coordinates": {
            "lat": 47.2920237,
            "lon": 8.5642163
        }
    },
    {
        "name": "NYFFIsound",
        "address": "Unknown",
        "coordinates": {
            "lat": 47.3002584,
            "lon": 8.8519407
        }
    },
    {
        "name": "Musikschule Z\u00fcrcher Oberland",
        "address": "Unknown",
        "coordinates": {
            "lat": 47.2699519,
            "lon": 8.8173717
        }
    },
    {
        "name": "Musikschule Z\u00fcrcher Oberland",
        "address": "Unknown",
        "coordinates": {
            "lat": 47.3642459,
            "lon": 8.8791548
        }
    },
    {
        "name": "Musikhaus Allenspach",
        "address": "Unknown",
        "coordinates": {
            "lat": 47.4509412,
            "lon": 9.0501675
        }
    },
    {
        "name": "Thusis",
        "address": "Unknown",
        "coordinates": {
            "lat": 46.6933015,
            "lon": 9.4404386
        }
    },
    {
        "name": "Eusin",
        "address": "Unknown",
        "coordinates": {
            "lat": 46.3027406,
            "lon": 6.8640451
        }
    },
    {
        "name": "Biblioteca della Scuola Media di Minusio",
        "address": "Unknown",
        "coordinates": {
            "lat": 46.1766803,
            "lon": 8.8245664
        }
    },
    {
        "name": "Musik Oesch",
        "address": "Unknown",
        "coordinates": {
            "lat": 47.5574978,
            "lon": 7.5821868
        }
    },
    {
        "name": "Musik Sch\u00f6nenberger AG",
        "address": "Unknown",
        "coordinates": {
            "lat": 47.4847473,
            "lon": 7.7340602
        }
    },
    {
        "name": "Casa Lusitania",
        "address": "Unknown",
        "coordinates": {
            "lat": 46.0192551,
            "lon": 7.7491475
        }
    },
    {
        "name": "Musik Wein",
        "address": "Unknown",
        "coordinates": {
            "lat": 47.3500925,
            "lon": 7.9043415
        }
    },
    {
        "name": "Musikschule Kellenberger Weyermannshaus",
        "address": "Unknown",
        "coordinates": {
            "lat": 46.9485993,
            "lon": 7.4117408
        }
    },
    {
        "name": "Musikladen",
        "address": "Unknown",
        "coordinates": {
            "lat": 46.9485664,
            "lon": 7.4117596
        }
    },
    {
        "name": "Musikschule",
        "address": "Unknown",
        "coordinates": {
            "lat": 47.0553771,
            "lon": 7.6247668
        }
    },
    {
        "name": "Musik Hug - Steinway Piano Gallery",
        "address": "Unknown",
        "coordinates": {
            "lat": 46.9444245,
            "lon": 7.4219196
        }
    },
    {
        "name": "Musikverein Sissach",
        "address": "Unknown",
        "coordinates": {
            "lat": 47.4651092,
            "lon": 7.8086672
        }
    },
    {
        "name": "Musikschule - RMS",
        "address": "Unknown",
        "coordinates": {
            "lat": 47.4651822,
            "lon": 7.8099031
        }
    },
    {
        "name": "Musikgesellschaft M\u00fchlethurnen",
        "address": "Unknown",
        "coordinates": {
            "lat": 46.8159911,
            "lon": 7.5068688
        }
    },
    {
        "name": "Musikgesellschaft Toffen",
        "address": "Musikgesellschaft Toffen, Postfach, 3125 Toffen",
        "coordinates": {
            "lat": 46.8608807,
            "lon": 7.4907533
        }
    },
    {
        "name": "Musikgesellschaft Belp",
        "address": "Unknown",
        "coordinates": {
            "lat": 46.8908147,
            "lon": 7.4991526
        }
    },
    {
        "name": "Musikgesellschaft Seftigen",
        "address": "Unknown",
        "coordinates": {
            "lat": 46.7859528,
            "lon": 7.5383966
        }
    },
    {
        "name": "Slongo R\u00f6thlin Partner Ingenieure & Planer AG SIA/USIC",
        "address": "Unknown",
        "coordinates": {
            "lat": 46.9611347,
            "lon": 8.3604487
        }
    },
    {
        "name": "La Musicale",
        "address": "Unknown",
        "coordinates": {
            "lat": 46.2009992,
            "lon": 6.1415217
        }
    },
    {
        "name": "Coop to go",
        "address": "Unknown",
        "coordinates": {
            "lat": 47.4077887,
            "lon": 8.5077158
        }
    },
    {
        "name": "Camusio",
        "address": "Unknown",
        "coordinates": {
            "lat": 46.099342,
            "lon": 8.8932717
        }
    },
    {
        "name": "A Music",
        "address": "Unknown",
        "coordinates": {
            "lat": 47.552116,
            "lon": 7.5891298
        }
    },
    {
        "name": "Musikschule Walchwil",
        "address": "Unknown",
        "coordinates": {
            "lat": 47.0997854,
            "lon": 8.5144123
        }
    },
    {
        "name": "Hotel Fusio",
        "address": "Unknown",
        "coordinates": {
            "lat": 46.4440124,
            "lon": 8.6630024
        }
    },
    {
        "name": "Fusion Arena Reality Center",
        "address": "Unknown",
        "coordinates": {
            "lat": 47.386629,
            "lon": 8.4984255
        }
    },
    {
        "name": "Grin Festival - Musica dal mondo",
        "address": "Unknown",
        "coordinates": {
            "lat": 46.2339748,
            "lon": 9.1350146
        }
    },
    {
        "name": "Musikgesellschaft Uttigen",
        "address": "Unknown",
        "coordinates": {
            "lat": 46.7925475,
            "lon": 7.5836945
        }
    },
    {
        "name": "LAMIR International GmbH",
        "address": "Unknown",
        "coordinates": {
            "lat": 47.3706235,
            "lon": 8.5286468
        }
    },
    {
        "name": "Musik-Akademie Basel",
        "address": "Unknown",
        "coordinates": {
            "lat": 47.5589121,
            "lon": 7.5965589
        }
    },
    {
        "name": "Chancy-Usine",
        "address": "Unknown",
        "coordinates": {
            "lat": 46.1566336,
            "lon": 5.9813162
        }
    },
    {
        "name": "Musikschule Appenzeller Mittelland",
        "address": "Unknown",
        "coordinates": {
            "lat": 47.3900726,
            "lon": 9.3882661
        }
    },
    {
        "name": "Le Fournil de Seb",
        "address": "Unknown",
        "coordinates": {
            "lat": 46.868781,
            "lon": 7.0121473
        }
    },
    {
        "name": "Tondo Music",
        "address": "Unknown",
        "coordinates": {
            "lat": 45.9339748,
            "lon": 8.9713397
        }
    },
    {
        "name": "WOODSTOCK Music Pub",
        "address": "Unknown",
        "coordinates": {
            "lat": 46.2154106,
            "lon": 9.0398991
        }
    },
    {
        "name": "Monument comm\u00e9moratif de la Fusillade du 9 novembre 1932",
        "address": "Unknown",
        "coordinates": {
            "lat": 46.1948551,
            "lon": 6.1410658
        }
    },
    {
        "name": "Musikegge Altstetten",
        "address": "Unknown",
        "coordinates": {
            "lat": 47.3867873,
            "lon": 8.4882508
        }
    },
    {
        "name": "Musik Bruhin",
        "address": "Unknown",
        "coordinates": {
            "lat": 47.3749658,
            "lon": 8.078087
        }
    },
    {
        "name": "Jugendmusikschule",
        "address": "Unknown",
        "coordinates": {
            "lat": 47.4766497,
            "lon": 7.6189638
        }
    },
    {
        "name": "Feusi Optik",
        "address": "Unknown",
        "coordinates": {
            "lat": 47.2315182,
            "lon": 8.8375233
        }
    },
    {
        "name": "Musikschule",
        "address": "Unknown",
        "coordinates": {
            "lat": 47.1718946,
            "lon": 8.51317
        }
    },
    {
        "name": "Musikschule",
        "address": "Unknown",
        "coordinates": {
            "lat": 47.1937308,
            "lon": 8.5261777
        }
    },
    {
        "name": "Esse Musicbar",
        "address": "Unknown",
        "coordinates": {
            "lat": 47.4937273,
            "lon": 8.7345161
        }
    },
    {
        "name": "Dynamic Business Center",
        "address": "Unknown",
        "coordinates": {
            "lat": 47.1376269,
            "lon": 7.2433094
        }
    },
    {
        "name": "Susi Swiss Cosmetics",
        "address": "Unknown",
        "coordinates": {
            "lat": 47.3926366,
            "lon": 8.5392295
        }
    },
    {
        "name": "Art Music",
        "address": "Unknown",
        "coordinates": {
            "lat": 46.4595196,
            "lon": 6.8436376
        }
    },
    {
        "name": "Jugendmusikschule",
        "address": "Unknown",
        "coordinates": {
            "lat": 47.5604344,
            "lon": 8.8987454
        }
    },
    {
        "name": "Jugendmusikschule",
        "address": "Unknown",
        "coordinates": {
            "lat": 47.5605318,
            "lon": 8.8986384
        }
    },
    {
        "name": "Jugendmusikschule",
        "address": "Unknown",
        "coordinates": {
            "lat": 47.4769093,
            "lon": 7.6184295
        }
    },
    {
        "name": "Menhir de Crusilles-Dessus",
        "address": "Unknown",
        "coordinates": {
            "lat": 46.797062,
            "lon": 6.6163786
        }
    },
    {
        "name": "Musikautomaten",
        "address": "Unknown",
        "coordinates": {
            "lat": 47.4399376,
            "lon": 7.6625974
        }
    },
    {
        "name": "Musikhaus Rengger",
        "address": "Unknown",
        "coordinates": {
            "lat": 47.3444677,
            "lon": 8.5331077
        }
    },
    {
        "name": "Musikhaus Luzern",
        "address": "Unknown",
        "coordinates": {
            "lat": 47.0652694,
            "lon": 8.3112492
        }
    },
    {
        "name": "Blaswerk Musik Haag",
        "address": "Unknown",
        "coordinates": {
            "lat": 47.5696512,
            "lon": 9.0988037
        }
    },
    {
        "name": "Musikschule Erzbachtal",
        "address": "Unknown",
        "coordinates": {
            "lat": 47.4067361,
            "lon": 8.0099152
        }
    },
    {
        "name": "Feusi",
        "address": "Unknown",
        "coordinates": {
            "lat": 47.2023815,
            "lon": 7.5406998
        }
    },
    {
        "name": "Gemeinde Feusisberg",
        "address": "Unknown",
        "coordinates": {
            "lat": 47.1763137,
            "lon": 8.7098236
        }
    },
    {
        "name": "Salle de musique TPR",
        "address": "Unknown",
        "coordinates": {
            "lat": 47.1017411,
            "lon": 6.8290008
        }
    },
    {
        "name": "Musikschule der Gemeinde",
        "address": "Unknown",
        "coordinates": {
            "lat": 47.0394111,
            "lon": 8.1835658
        }
    },
    {
        "name": "Musik Hug",
        "address": "Unknown",
        "coordinates": {
            "lat": 47.5279371,
            "lon": 8.5334609
        }
    },
    {
        "name": "Swiss Museum for Electronic Music Instruments",
        "address": "Unknown",
        "coordinates": {
            "lat": 46.7977094,
            "lon": 7.1471621
        }
    },
    {
        "name": "Im Feusi",
        "address": "Unknown",
        "coordinates": {
            "lat": 47.5068769,
            "lon": 8.4078237
        }
    },
    {
        "name": "Musikhaus Frick",
        "address": "Unknown",
        "coordinates": {
            "lat": 47.18839,
            "lon": 8.3971985
        }
    },
    {
        "name": "Molokai Fusion Poke Bar",
        "address": "Unknown",
        "coordinates": {
            "lat": 46.2025742,
            "lon": 6.1555774
        }
    },
    {
        "name": "Musikschule",
        "address": "Unknown",
        "coordinates": {
            "lat": 47.476327,
            "lon": 7.6194796
        }
    },
    {
        "name": "Feusi",
        "address": "Unknown",
        "coordinates": {
            "lat": 47.5070011,
            "lon": 8.4079313
        }
    },
    {
        "name": "Une r\u00e9serve, mais plusieurs f\u00f4rets",
        "address": "Unknown",
        "coordinates": {
            "lat": 47.2403798,
            "lon": 6.9514553
        }
    },
    {
        "name": "Musikschule Aarberg",
        "address": "Unknown",
        "coordinates": {
            "lat": 47.0441934,
            "lon": 7.2790098
        }
    },
    {
        "name": "Bleichiweg",
        "address": "Unknown",
        "coordinates": {
            "lat": 47.4603679,
            "lon": 7.8603163
        }
    },
    {
        "name": "Bleichiweg",
        "address": "Unknown",
        "coordinates": {
            "lat": 47.4603505,
            "lon": 7.8604575
        }
    },
    {
        "name": "WKW Feusisberg",
        "address": "Unknown",
        "coordinates": {
            "lat": 47.1734604,
            "lon": 8.7130552
        }
    },
    {
        "name": "Studio Musicale",
        "address": "Unknown",
        "coordinates": {
            "lat": 46.9245652,
            "lon": 7.1127289
        }
    },
    {
        "name": "Fusion",
        "address": "Unknown",
        "coordinates": {
            "lat": 47.098148,
            "lon": 6.817854
        }
    },
    {
        "name": "Modern Music School",
        "address": "Unknown",
        "coordinates": {
            "lat": 47.0113897,
            "lon": 9.0810243
        }
    },
    {
        "name": "Fusion Arena Virtual Reality Center Kreuzlingen",
        "address": "Unknown",
        "coordinates": {
            "lat": 47.6508106,
            "lon": 9.1722355
        }
    },
    {
        "name": "Musical-Theater",
        "address": "Unknown",
        "coordinates": {
            "lat": 47.5689106,
            "lon": 7.5975838
        }
    },
    {
        "name": "Schmusi-B\u00e4nkli",
        "address": "Unknown",
        "coordinates": {
            "lat": 46.9918374,
            "lon": 7.7775177
        }
    },
    {
        "name": "Fusion",
        "address": "Unknown",
        "coordinates": {
            "lat": 47.0983031,
            "lon": 6.8180957
        }
    },
    {
        "name": "Comune di Menusio",
        "address": "Unknown",
        "coordinates": {
            "lat": 46.17877,
            "lon": 8.8408519
        }
    },
    {
        "name": "Dusi",
        "address": "Unknown",
        "coordinates": {
            "lat": 47.2004719,
            "lon": 9.3607412
        }
    },
    {
        "name": "Dusi",
        "address": "Unknown",
        "coordinates": {
            "lat": 47.2003601,
            "lon": 9.3610805
        }
    },
    {
        "name": "Dusi",
        "address": "Unknown",
        "coordinates": {
            "lat": 47.2003144,
            "lon": 9.3610476
        }
    },
    {
        "name": "Musikschule Appenzeller Vorderland",
        "address": "Unknown",
        "coordinates": {
            "lat": 47.44515,
            "lon": 9.5314745
        }
    },
    {
        "name": "IDSIA USI-SUPSI",
        "address": "Unknown",
        "coordinates": {
            "lat": 46.0124883,
            "lon": 8.9614826
        }
    },
    {
        "name": "La Bambousi\u00e8re",
        "address": "Unknown",
        "coordinates": {
            "lat": 46.2762838,
            "lon": 6.1590668
        }
    },
    {
        "name": "Brusio, Piazzo Fermata",
        "address": "Unknown",
        "coordinates": {
            "lat": 46.261077,
            "lon": 10.1202174
        }
    },
    {
        "name": "Brusio, Ginetto Paese",
        "address": "Unknown",
        "coordinates": {
            "lat": 46.2641979,
            "lon": 10.1203787
        }
    },
    {
        "name": "Brusio, Scuole",
        "address": "Unknown",
        "coordinates": {
            "lat": 46.2579286,
            "lon": 10.1252351
        }
    },
    {
        "name": "Brusio, Selvaplana",
        "address": "Unknown",
        "coordinates": {
            "lat": 46.2743354,
            "lon": 10.1146714
        }
    },
    {
        "name": "Brusio, Garbella",
        "address": "Unknown",
        "coordinates": {
            "lat": 46.2719971,
            "lon": 10.114349
        }
    },
    {
        "name": "Brusio, Cotongi",
        "address": "Unknown",
        "coordinates": {
            "lat": 46.2707175,
            "lon": 10.1209861
        }
    },
    {
        "name": "Brusio, La Presa Sur",
        "address": "Unknown",
        "coordinates": {
            "lat": 46.2690703,
            "lon": 10.1197677
        }
    },
    {
        "name": "Brusio, La Presa Sot",
        "address": "Unknown",
        "coordinates": {
            "lat": 46.2676743,
            "lon": 10.1204139
        }
    },
    {
        "name": "Brusio, M\u00fcreda",
        "address": "Unknown",
        "coordinates": {
            "lat": 46.2662504,
            "lon": 10.1204897
        }
    },
    {
        "name": "Brusio, Piazzo Paese",
        "address": "Unknown",
        "coordinates": {
            "lat": 46.2635107,
            "lon": 10.1193941
        }
    },
    {
        "name": "Brusio, I Prai",
        "address": "Unknown",
        "coordinates": {
            "lat": 46.2627603,
            "lon": 10.1221304
        }
    },
    {
        "name": "Brusio, B\u00fci",
        "address": "Unknown",
        "coordinates": {
            "lat": 46.2602752,
            "lon": 10.122191
        }
    },
    {
        "name": "Feldmusik Str\u00e4ttligen",
        "address": "Unknown",
        "coordinates": {
            "lat": 46.7333255,
            "lon": 7.6195939
        }
    },
    {
        "name": "Conservatoire populaire de musique, danse et th\u00e9\u00e2tre",
        "address": "Unknown",
        "coordinates": {
            "lat": 46.2034781,
            "lon": 6.1404699
        }
    },
    {
        "name": "Conservatoire populaire de musique, danse et th\u00e9\u00e2tre",
        "address": "Unknown",
        "coordinates": {
            "lat": 46.1741696,
            "lon": 6.0846504
        }
    },
    {
        "name": "Exclusiv Fashion",
        "address": "Unknown",
        "coordinates": {
            "lat": 47.4992374,
            "lon": 8.7313762
        }
    },
    {
        "name": "SWISS Lounge D",
        "address": "Unknown",
        "coordinates": {
            "lat": 47.4500404,
            "lon": 8.5601975
        }
    },
    {
        "name": "SWISS Lounge E",
        "address": "Unknown",
        "coordinates": {
            "lat": 47.4611122,
            "lon": 8.555696
        }
    },
    {
        "name": "Airport Taxi Service Basel & Patrick's Limousinen Service GmbH",
        "address": "Unknown",
        "coordinates": {
            "lat": 47.5520778,
            "lon": 7.5620689
        }
    },
    {
        "name": "Centre de transfusion",
        "address": "Unknown",
        "coordinates": {
            "lat": 46.9927214,
            "lon": 6.9356201
        }
    },
    {
        "name": "Musikschule Uri",
        "address": "Unknown",
        "coordinates": {
            "lat": 46.8795867,
            "lon": 8.63752
        }
    },
    {
        "name": "\u00c9cole de musique et Harmonie Avenir",
        "address": "Unknown",
        "coordinates": {
            "lat": 46.7864179,
            "lon": 6.6398812
        }
    },
    {
        "name": "Musicalia",
        "address": "Unknown",
        "coordinates": {
            "lat": 46.9659546,
            "lon": 6.8594602
        }
    },
    {
        "name": "Musik Beat Zurkinden",
        "address": "Unknown",
        "coordinates": {
            "lat": 47.228157,
            "lon": 7.7892798
        }
    },
    {
        "name": "Musikalische Weltreise",
        "address": "Unknown",
        "coordinates": {
            "lat": 46.564361,
            "lon": 7.8883943
        }
    },
    {
        "name": "jmb-diffusion.ch",
        "address": "Unknown",
        "coordinates": {
            "lat": 47.1036588,
            "lon": 6.8290303
        }
    },
    {
        "name": "Stoffler Musik",
        "address": "Unknown",
        "coordinates": {
            "lat": 47.5534603,
            "lon": 7.5901433
        }
    },
    {
        "name": "Ruh Music",
        "address": "Unknown",
        "coordinates": {
            "lat": 47.3185057,
            "lon": 8.5229602
        }
    },
    {
        "name": "Maison de Warens, Conservatoire de musique",
        "address": "Unknown",
        "coordinates": {
            "lat": 46.4598322,
            "lon": 6.8433693
        }
    },
    {
        "name": "CKW - D4 Business Park",
        "address": "Unknown",
        "coordinates": {
            "lat": 47.10426,
            "lon": 8.374296
        }
    },
    {
        "name": "Henry's Live Musik & Sports Bar",
        "address": "Unknown",
        "coordinates": {
            "lat": 47.4739562,
            "lon": 8.3071052
        }
    },
    {
        "name": "Musikgesellschaft Hinterkappelen-Wohlen",
        "address": "Unknown",
        "coordinates": {
            "lat": 46.9683752,
            "lon": 7.3796515
        }
    },
    {
        "name": "Musikgesellschaft MG Uettligen",
        "address": "Unknown",
        "coordinates": {
            "lat": 46.9876278,
            "lon": 7.3859594
        }
    },
    {
        "name": "Fusion Interiors",
        "address": "Unknown",
        "coordinates": {
            "lat": 47.3995996,
            "lon": 8.6051719
        }
    },
    {
        "name": "TV Diffusion S\u00e0rl",
        "address": "Unknown",
        "coordinates": {
            "lat": 46.219534,
            "lon": 7.3038941
        }
    },
    {
        "name": "Mentalcoach Businesscoach Bern",
        "address": "Unknown",
        "coordinates": {
            "lat": 46.9748985,
            "lon": 7.4905799
        }
    },
    {
        "name": "D\u00e9charge cantonale Sur Crusilles",
        "address": "Unknown",
        "coordinates": {
            "lat": 46.796528,
            "lon": 6.6182855
        }
    },
    {
        "name": "Carron Excusions",
        "address": "Unknown",
        "coordinates": {
            "lat": 46.138882,
            "lon": 7.1166561
        }
    },
    {
        "name": "Musik & Wein",
        "address": "Unknown",
        "coordinates": {
            "lat": 47.3734324,
            "lon": 8.5532079
        }
    },
    {
        "name": "Musiq",
        "address": "Unknown",
        "coordinates": {
            "lat": 46.2313735,
            "lon": 7.3580795
        }
    },
    {
        "name": "Bundesamt f\u00fcr Wohnungswesen",
        "address": "Unknown",
        "coordinates": {
            "lat": 46.9407156,
            "lon": 7.4474301
        }
    },
    {
        "name": "Music City",
        "address": "Unknown",
        "coordinates": {
            "lat": 46.2294731,
            "lon": 7.3587928
        }
    },
    {
        "name": "Rausimatt",
        "address": "Unknown",
        "coordinates": {
            "lat": 47.106094,
            "lon": 7.7465879
        }
    },
    {
        "name": "Musikraum 5 / \"Touch the Lake\"",
        "address": "Unknown",
        "coordinates": {
            "lat": 47.4139289,
            "lon": 8.5603072
        }
    },
    {
        "name": "Musikraum 4 / \"Moon & Stars\"",
        "address": "Unknown",
        "coordinates": {
            "lat": 47.4139173,
            "lon": 8.5602176
        }
    },
    {
        "name": "Musikraum 1 / \"Montreux\"",
        "address": "Unknown",
        "coordinates": {
            "lat": 47.4134374,
            "lon": 8.560481
        }
    },
    {
        "name": "Musikraum 2 / \"Heavenstage\"",
        "address": "Unknown",
        "coordinates": {
            "lat": 47.413422,
            "lon": 8.560509
        }
    },
    {
        "name": "Musikraum 3 / \"Stadtsommer\"",
        "address": "Unknown",
        "coordinates": {
            "lat": 47.4134048,
            "lon": 8.560531
        }
    },
    {
        "name": "Musikschule Region Jegenstorf",
        "address": "Unknown",
        "coordinates": {
            "lat": 47.0172725,
            "lon": 7.4813518
        }
    },
    {
        "name": "Musikschule",
        "address": "Unknown",
        "coordinates": {
            "lat": 47.1719226,
            "lon": 8.5131497
        }
    },
    {
        "name": "Check-in 1 - Business/First",
        "address": "Unknown",
        "coordinates": {
            "lat": 47.4527176,
            "lon": 8.5625703
        }
    },
    {
        "name": "VeloClusive",
        "address": "Unknown",
        "coordinates": {
            "lat": 47.005025,
            "lon": 7.106936
        }
    },
    {
        "name": "Transfert Music",
        "address": "Unknown",
        "coordinates": {
            "lat": 46.7794719,
            "lon": 6.642534
        }
    },
    {
        "name": "Fusion-World",
        "address": "Unknown",
        "coordinates": {
            "lat": 46.9250917,
            "lon": 8.2634495
        }
    },
    {
        "name": "Music-Centre",
        "address": "Unknown",
        "coordinates": {
            "lat": 46.2303058,
            "lon": 7.3655734
        }
    },
    {
        "name": "Schnausiegge",
        "address": "Unknown",
        "coordinates": {
            "lat": 47.1068533,
            "lon": 8.4095066
        }
    },
    {
        "name": "lichtundmusik.ch GmbH",
        "address": "Unknown",
        "coordinates": {
            "lat": 47.4199978,
            "lon": 8.6808236
        }
    },
    {
        "name": "Husi & Sohn",
        "address": "Unknown",
        "coordinates": {
            "lat": 47.4941096,
            "lon": 7.7238045
        }
    },
    {
        "name": "Dusita",
        "address": "Unknown",
        "coordinates": {
            "lat": 47.6812939,
            "lon": 8.6191158
        }
    },
    {
        "name": "Music Space",
        "address": "Unknown",
        "coordinates": {
            "lat": 46.2523379,
            "lon": 6.9506062
        }
    },
    {
        "name": "\u00c9cole de musique La source",
        "address": "Unknown",
        "coordinates": {
            "lat": 46.5376569,
            "lon": 6.5822505
        }
    },
    {
        "name": "EJMA",
        "address": "Unknown",
        "coordinates": {
            "lat": 46.5215359,
            "lon": 6.6260828
        }
    },
    {
        "name": "Musique municipale de Meyrin",
        "address": "Unknown",
        "coordinates": {
            "lat": 46.2290305,
            "lon": 6.0730151
        }
    },
    {
        "name": "Fino Diffusion - mobilier de bureau",
        "address": "Unknown",
        "coordinates": {
            "lat": 46.5146855,
            "lon": 6.6196921
        }
    },
    {
        "name": "BVS Business-School Z\u00fcrich",
        "address": "Unknown",
        "coordinates": {
            "lat": 47.3792634,
            "lon": 8.5288557
        }
    },
    {
        "name": "MBSZ Marketing & Business School",
        "address": "Unknown",
        "coordinates": {
            "lat": 47.377615,
            "lon": 8.5439055
        }
    },
    {
        "name": "SSIB Swiss School for International Business",
        "address": "Unknown",
        "coordinates": {
            "lat": 47.4523551,
            "lon": 8.5632215
        }
    },
    {
        "name": "Hausi's Sammlertreff",
        "address": "Unknown",
        "coordinates": {
            "lat": 47.2604739,
            "lon": 8.5990877
        }
    },
    {
        "name": "NTTDATA Business Solutions",
        "address": "Unknown",
        "coordinates": {
            "lat": 47.4489847,
            "lon": 8.5667746
        }
    },
    {
        "name": "Musikschule Muri-G\u00fcmligen",
        "address": "Unknown",
        "coordinates": {
            "lat": 46.9285279,
            "lon": 7.4821267
        }
    },
    {
        "name": "WIAM Musicschool",
        "address": "Unknown",
        "coordinates": {
            "lat": 47.4979162,
            "lon": 8.7229916
        }
    },
    {
        "name": "Feusi \u00e9lectricit\u00e9 SA",
        "address": "Unknown",
        "coordinates": {
            "lat": 46.2465193,
            "lon": 6.9607025
        }
    },
    {
        "name": "Restaurant Le Lusitano",
        "address": "Unknown",
        "coordinates": {
            "lat": 46.1686281,
            "lon": 6.1093619
        }
    },
    {
        "name": "SGO Business School",
        "address": "Unknown",
        "coordinates": {
            "lat": 47.4375737,
            "lon": 8.5623637
        }
    },
    {
        "name": "Soleil diffusio",
        "address": "Unknown",
        "coordinates": {
            "lat": 46.7837673,
            "lon": 6.6335533
        }
    },
    {
        "name": "Business Engineering Group",
        "address": "Unknown",
        "coordinates": {
            "lat": 47.6931383,
            "lon": 8.6258736
        }
    },
    {
        "name": "Fournier Musique",
        "address": "Unknown",
        "coordinates": {
            "lat": 47.3662822,
            "lon": 7.3438358
        }
    },
    {
        "name": "Cinema Music Club",
        "address": "Unknown",
        "coordinates": {
            "lat": 46.7267324,
            "lon": 9.5582726
        }
    },
    {
        "name": "Eusin",
        "address": "Unknown",
        "coordinates": {
            "lat": 46.3004215,
            "lon": 6.863926
        }
    },
    {
        "name": "Musik Pau",
        "address": "Unknown",
        "coordinates": {
            "lat": 47.3864529,
            "lon": 9.2782072
        }
    },
    {
        "name": "Vela Giovanni Minusio",
        "address": "Unknown",
        "coordinates": {
            "lat": 46.1748044,
            "lon": 8.8227316
        }
    },
    {
        "name": "Gros Cousimbert K\u00e4senberg",
        "address": "Unknown",
        "coordinates": {
            "lat": 46.697451,
            "lon": 7.1875875
        }
    },
    {
        "name": "Brusio",
        "address": "Unknown",
        "coordinates": {
            "lat": 46.259095,
            "lon": 10.1254189
        }
    },
    {
        "name": "Musikraum Pavillon",
        "address": "Unknown",
        "coordinates": {
            "lat": 47.4147777,
            "lon": 8.56279
        }
    },
    {
        "name": "Thusis",
        "address": "Unknown",
        "coordinates": {
            "lat": 46.6985294,
            "lon": 9.4405893
        }
    },
    {
        "name": "Thusis",
        "address": "Unknown",
        "coordinates": {
            "lat": 46.6985179,
            "lon": 9.4405382
        }
    },
    {
        "name": "Quartier Corbusier",
        "address": "Unknown",
        "coordinates": {
            "lat": 47.0975005,
            "lon": 6.8227853
        }
    },
    {
        "name": "Predusin",
        "address": "Unknown",
        "coordinates": {
            "lat": 46.2813576,
            "lon": 10.1378073
        }
    },
    {
        "name": "Musik Egloff",
        "address": "Unknown",
        "coordinates": {
            "lat": 47.4675948,
            "lon": 8.3221121
        }
    },
    {
        "name": "Maison de la musique",
        "address": "Unknown",
        "coordinates": {
            "lat": 46.1059171,
            "lon": 7.0769096
        }
    },
    {
        "name": "New Limousine",
        "address": "Unknown",
        "coordinates": {
            "lat": 45.9806627,
            "lon": 8.9404205
        }
    },
    {
        "name": "Musicdoor",
        "address": "Unknown",
        "coordinates": {
            "lat": 46.0041598,
            "lon": 8.9507511
        }
    },
    {
        "name": "\u00c9cole Jurassienne et Conservatoire de Musique",
        "address": "Unknown",
        "coordinates": {
            "lat": 47.4259642,
            "lon": 7.0799368
        }
    },
    {
        "name": "Sinn- und Klangweg - Ch\u00f6rli Musikbox",
        "address": "Unknown",
        "coordinates": {
            "lat": 46.8590516,
            "lon": 7.17455
        }
    },
    {
        "name": "Melody Music & More",
        "address": "Unknown",
        "coordinates": {
            "lat": 47.049212,
            "lon": 8.5495833
        }
    },
    {
        "name": "Filiale Thusis",
        "address": "Unknown",
        "coordinates": {
            "lat": 46.6978704,
            "lon": 9.4399928
        }
    },
    {
        "name": "Les Reusilles",
        "address": "Unknown",
        "coordinates": {
            "lat": 47.2242719,
            "lon": 7.0827883
        }
    },
    {
        "name": "Les Reusilles",
        "address": "Unknown",
        "coordinates": {
            "lat": 47.2242254,
            "lon": 7.0827883
        }
    },
    {
        "name": "Riedhof",
        "address": "Unknown",
        "coordinates": {
            "lat": 47.1877125,
            "lon": 8.7630059
        }
    },
    {
        "name": "Ried",
        "address": "Unknown",
        "coordinates": {
            "lat": 47.1880478,
            "lon": 8.7605301
        }
    },
    {
        "name": "Musikschule Alato",
        "address": "Unknown",
        "coordinates": {
            "lat": 47.4268587,
            "lon": 8.6850414
        }
    },
    {
        "name": "Musikschule Alato",
        "address": "Unknown",
        "coordinates": {
            "lat": 47.4265377,
            "lon": 8.6849679
        }
    },
    {
        "name": "Dr. Husi",
        "address": "Unknown",
        "coordinates": {
            "lat": 47.4992685,
            "lon": 7.5564992
        }
    },
    {
        "name": "Garage Brusino",
        "address": "Unknown",
        "coordinates": {
            "lat": 45.9305296,
            "lon": 8.9402256
        }
    },
    {
        "name": "Brusino Arsizio",
        "address": "Unknown",
        "coordinates": {
            "lat": 45.9298474,
            "lon": 8.9379838
        }
    },
    {
        "name": "Unknown",
        "address": "Unknown",
        "coordinates": {
            "lat": 47.4371928,
            "lon": 8.5631743
        }
    },
    {
        "name": "Unknown",
        "address": "Unknown",
        "coordinates": {
            "lat": 47.4938807,
            "lon": 8.7417346
        }
    },
    {
        "name": "Musik Spiri Winterthur",
        "address": "Unknown",
        "coordinates": {
            "lat": 47.5026051,
            "lon": 8.7342435
        }
    },
    {
        "name": "ALTE BRAUEREI BUCHS - Business Apartment",
        "address": "Unknown",
        "coordinates": {
            "lat": 47.1646292,
            "lon": 9.4640151
        }
    },
    {
        "name": "Hochschule der K\u00fcnste Bern - Musik und Bewegung",
        "address": "Unknown",
        "coordinates": {
            "lat": 47.1414297,
            "lon": 7.2453698
        }
    },
    {
        "name": "Musik Zielke",
        "address": "Unknown",
        "coordinates": {
            "lat": 47.2764443,
            "lon": 8.9154675
        }
    },
    {
        "name": "Hochschule Luzern \u2013 Musik",
        "address": "Unknown",
        "coordinates": {
            "lat": 47.0326092,
            "lon": 8.2969861
        }
    },
    {
        "name": "Musikschule Stadt Luzern",
        "address": "Unknown",
        "coordinates": {
            "lat": 47.0333332,
            "lon": 8.2967581
        }
    },
    {
        "name": "Rappi Musig",
        "address": "Unknown",
        "coordinates": {
            "lat": 47.2277457,
            "lon": 8.8199276
        }
    },
    {
        "name": "Auto Music Shop",
        "address": "Unknown",
        "coordinates": {
            "lat": 46.4673002,
            "lon": 6.8425521
        }
    },
    {
        "name": "Musikgesellschaft Sumiswald",
        "address": "Unknown",
        "coordinates": {
            "lat": 47.0263489,
            "lon": 7.7480425
        }
    },
    {
        "name": "Musikschule",
        "address": "Unknown",
        "coordinates": {
            "lat": 47.459369,
            "lon": 7.8611268
        }
    },
    {
        "name": "Susi's Hofl\u00e4deli",
        "address": "Unknown",
        "coordinates": {
            "lat": 46.9794983,
            "lon": 8.6195023
        }
    },
    {
        "name": "Rondo Musikschule",
        "address": "Unknown",
        "coordinates": {
            "lat": 47.5184036,
            "lon": 9.4344617
        }
    },
    {
        "name": "Busio",
        "address": "Unknown",
        "coordinates": {
            "lat": 46.1064472,
            "lon": 8.9537321
        }
    },
    {
        "name": "Thusis Bahnhof",
        "address": "Unknown",
        "coordinates": {
            "lat": 46.6984171,
            "lon": 9.4401351
        }
    },
    {
        "name": "Thusis Bahnhof",
        "address": "Unknown",
        "coordinates": {
            "lat": 46.6983819,
            "lon": 9.4401333
        }
    },
    {
        "name": "Thusis Bahnhof",
        "address": "Unknown",
        "coordinates": {
            "lat": 46.6983456,
            "lon": 9.4401322
        }
    },
    {
        "name": "Thusis Bahnhof",
        "address": "Unknown",
        "coordinates": {
            "lat": 46.6983093,
            "lon": 9.4401303
        }
    },
    {
        "name": "Thusis Bahnhof",
        "address": "Unknown",
        "coordinates": {
            "lat": 46.6984516,
            "lon": 9.440138
        }
    },
    {
        "name": "Betriebsstelle Thusis",
        "address": "Unknown",
        "coordinates": {
            "lat": 46.6982159,
            "lon": 9.4401313
        }
    },
    {
        "name": "Transfusion Interr\u00e9gionale CRS",
        "address": "Unknown",
        "coordinates": {
            "lat": 46.5426188,
            "lon": 6.6609804
        }
    },
    {
        "name": "Fachstelle Kindheit, Jugend und Inklusion",
        "address": "Unknown",
        "coordinates": {
            "lat": 47.348536,
            "lon": 8.718905
        }
    },
    {
        "name": "Axept Business Software AG",
        "address": "Unknown",
        "coordinates": {
            "lat": 47.45156,
            "lon": 8.70427
        }
    },
    {
        "name": "Axept Business Software AG",
        "address": "Unknown",
        "coordinates": {
            "lat": 47.43614,
            "lon": 9.39568
        }
    },
    {
        "name": "BHMS International AG, Business & Hotelmanagement School",
        "address": "Unknown",
        "coordinates": {
            "lat": 47.05213,
            "lon": 8.29841
        }
    },
    {
        "name": "BHMS International AG, Business & Hotelmanagement School",
        "address": "Unknown",
        "coordinates": {
            "lat": 47.05277,
            "lon": 8.30093
        }
    },
    {
        "name": "Businesspark Dietschiberg AG",
        "address": "Unknown",
        "coordinates": {
            "lat": 47.07147,
            "lon": 8.34867
        }
    },
    {
        "name": "\u00c9cole de musique MMM",
        "address": "Unknown",
        "coordinates": {
            "lat": 46.2289891,
            "lon": 6.0729396
        }
    },
    {
        "name": "magazzini comunali a Brusio",
        "address": "Unknown",
        "coordinates": {
            "lat": 46.2583101,
            "lon": 10.1264733
        }
    },
    {
        "name": "\u00c9cole de musique atempy",
        "address": "Unknown",
        "coordinates": {
            "lat": 46.788306,
            "lon": 6.6310526
        }
    },
    {
        "name": "melectronics",
        "address": "Unknown",
        "coordinates": {
            "lat": 46.6944449,
            "lon": 9.4400312
        }
    },
    {
        "name": "Musikschule Maetina Wittwer",
        "address": "Unknown",
        "coordinates": {
            "lat": 46.9455737,
            "lon": 7.428391
        }
    },
    {
        "name": "Annamarie\u2019s Musigst\u00fcbli",
        "address": "Unknown",
        "coordinates": {
            "lat": 47.3699506,
            "lon": 8.5118549
        }
    },
    {
        "name": "Unknown",
        "address": "Unknown",
        "coordinates": {
            "lat": 46.2541959,
            "lon": 10.1279765
        }
    },
    {
        "name": "Unknown",
        "address": "Unknown",
        "coordinates": {
            "lat": 46.254175,
            "lon": 10.1279971
        }
    },
    {
        "name": "Unknown",
        "address": "Unknown",
        "coordinates": {
            "lat": 46.2540218,
            "lon": 10.1282732
        }
    },
    {
        "name": "\u00c9cole Sup\u00e9rieure de Musique Habib Kayaleh",
        "address": "Unknown",
        "coordinates": {
            "lat": 46.3582323,
            "lon": 6.2057221
        }
    },
    {
        "name": "Thusis",
        "address": "Unknown",
        "coordinates": {
            "lat": 46.6935147,
            "lon": 9.4414669
        }
    },
    {
        "name": "Musikverein Thayngen",
        "address": "Unknown",
        "coordinates": {
            "lat": 47.7489826,
            "lon": 8.7006768
        }
    },
    {
        "name": "DON BOSCO Musik- und Kulturzentrum",
        "address": "Unknown",
        "coordinates": {
            "lat": 47.554294,
            "lon": 7.6085861
        }
    },
    {
        "name": "Informatik Service Center ISC-EJPD",
        "address": "Unknown",
        "coordinates": {
            "lat": 46.9978017,
            "lon": 7.4627885
        }
    },
    {
        "name": "architektur+musik roman oberholzer gmbh",
        "address": "Unknown",
        "coordinates": {
            "lat": 47.2267255,
            "lon": 8.8152199
        }
    },
    {
        "name": "Musikatelier f\u00fcr Blasinstrumente",
        "address": "Unknown",
        "coordinates": {
            "lat": 47.1263285,
            "lon": 7.9969005
        }
    },
    {
        "name": "Musikhaus Kubli",
        "address": "Unknown",
        "coordinates": {
            "lat": 47.3608947,
            "lon": 8.5167498
        }
    },
    {
        "name": "KV Business School",
        "address": "Unknown",
        "coordinates": {
            "lat": 47.3773147,
            "lon": 8.535216
        }
    },
    {
        "name": "Glausenberg",
        "address": "Unknown",
        "coordinates": {
            "lat": 47.1861081,
            "lon": 9.0656912
        }
    },
    {
        "name": "Heavy Weight Music",
        "address": "Unknown",
        "coordinates": {
            "lat": 47.3797267,
            "lon": 8.5240783
        }
    },
    {
        "name": "\u00c9cole de musique de Cossonay",
        "address": "Unknown",
        "coordinates": {
            "lat": 46.6109202,
            "lon": 6.507369
        }
    }
]