[
    {
        "name": "Unknown Amenity",
        "address": "R\u00e4mistrasse, 8006, Z\u00fcrich",
        "coordinates": {
            "lat": 47.3746371,
            "lon": 8.5490938
        },
        "quarter": "Altstadt",
        "city": "Z\u00fcrich"
    },
    {
        "name": "Universit\u00e4t Z\u00fcrich (UZH), Zentrum",
        "address": "R\u00e4mistrasse, 8091, Z\u00fcrich",
        "coordinates": {
            "lat": 47.3753313,
            "lon": 8.5479559
        },
        "quarter": "Altstadt",
        "city": "Z\u00fcrich"
    },
    {
        "name": "Cafeteria UZH Botanischer Garten",
        "address": "Unknown",
        "coordinates": {
            "lat": 47.3588123,
            "lon": 8.5595427
        }
    },
    {
        "name": "Universit\u00e4t Z\u00fcrich, Oerlikon (AFL)",
        "address": "Unknown",
        "coordinates": {
            "lat": 47.4107931,
            "lon": 8.5402012
        }
    },
    {
        "name": "Startup@UZH",
        "address": "Unknown",
        "coordinates": {
            "lat": 47.3755211,
            "lon": 8.5451557
        }
    },
    {
        "name": "Cafeteria UZH Cityport",
        "address": "Unknown",
        "coordinates": {
            "lat": 47.4105886,
            "lon": 8.5396374
        }
    },
    {
        "name": "Cafeteria UZH Plattenstrasse",
        "address": "Unknown",
        "coordinates": {
            "lat": 47.3740968,
            "lon": 8.5526502
        }
    },
    {
        "name": "Universit\u00e4t Z\u00fcrich, Oerlikon (BIN)",
        "address": "Unknown",
        "coordinates": {
            "lat": 47.4143948,
            "lon": 8.5496239
        }
    },
    {
        "name": "Universit\u00e4t Z\u00fcrich, Oerlikon (AND)",
        "address": "Unknown",
        "coordinates": {
            "lat": 47.4131889,
            "lon": 8.5487502
        }
    },
    {
        "name": "Mensa UZH Zentrum (Obere Mensa)",
        "address": "Unknown",
        "coordinates": {
            "lat": 47.3739705,
            "lon": 8.5482357
        }
    },
    {
        "name": "Mensa UZH Zentrum Mercato (Untere Mensa)",
        "address": "Unknown",
        "coordinates": {
            "lat": 47.3738499,
            "lon": 8.5482495
        }
    },
    {
        "name": "Mensa UZH Binzm\u00fchle",
        "address": "Unknown",
        "coordinates": {
            "lat": 47.4143458,
            "lon": 8.549391
        }
    },
    {
        "name": "Cafeteria UZH Zentrum f\u00fcr Zahnmedizin (ZZM)",
        "address": "Unknown",
        "coordinates": {
            "lat": 47.3744739,
            "lon": 8.5530008
        }
    },
    {
        "name": "Cafeteria UZH R\u00e4mistrasse",
        "address": "Unknown",
        "coordinates": {
            "lat": 47.373192,
            "lon": 8.5506493
        }
    },
    {
        "name": "Mensa UZH Zentrum (Lichthof Rondell)",
        "address": "Unknown",
        "coordinates": {
            "lat": 47.3745186,
            "lon": 8.5487348
        }
    },
    {
        "name": "Betriebsfeuerwehr UZH",
        "address": "Unknown",
        "coordinates": {
            "lat": 47.398474,
            "lon": 8.548819
        }
    },
    {
        "name": "Institute of Medical Genetics, UZH",
        "address": "Unknown",
        "coordinates": {
            "lat": 47.3988819,
            "lon": 8.4579362
        }
    },
    {
        "name": "Referenz-Impfzentrum RIZ der Universit\u00e4t Z\u00fcrich",
        "address": "Unknown",
        "coordinates": {
            "lat": 47.3760017,
            "lon": 8.5454071
        }
    },
    {
        "name": "Unknown Amenity",
        "address": "Winterthurerstrasse, 8057, Z\u00fcrich",
        "coordinates": {
            "lat": 47.3989047,
            "lon": 8.5501358
        },
        "quarter": "Oerlikon",
        "city": "Z\u00fcrich"
    }
]