[
    {
        "name": "W\u00e4denswil Gr\u00fcental / ZHAW",
        "address": "Unknown",
        "coordinates": {
            "lat": 47.21885,
            "lon": 8.67972
        }
    },
    {
        "name": "ZHAW TE",
        "address": "Unknown",
        "coordinates": {
            "lat": 47.4973884,
            "lon": 8.7300384
        }
    },
    {
        "name": "Caf\u00e9 ZHAW",
        "address": "Unknown",
        "coordinates": {
            "lat": 47.3777051,
            "lon": 8.5326235
        }
    },
    {
        "name": "ZHAW TM",
        "address": "Unknown",
        "coordinates": {
            "lat": 47.4969706,
            "lon": 8.7302915
        }
    },
    {
        "name": "ASVZ",
        "address": "Unknown",
        "coordinates": {
            "lat": 47.4937009,
            "lon": 8.716883
        }
    },
    {
        "name": "ZHAW",
        "address": "Unknown",
        "coordinates": {
            "lat": 47.4999206,
            "lon": 8.7204505
        }
    },
    {
        "name": "ZHAW",
        "address": "Unknown",
        "coordinates": {
            "lat": 47.5030853,
            "lon": 8.7266888
        }
    },
    {
        "name": "ZHAW",
        "address": "Unknown",
        "coordinates": {
            "lat": 47.5022458,
            "lon": 8.726073
        }
    },
    {
        "name": "ZHAW",
        "address": "Unknown",
        "coordinates": {
            "lat": 47.4973414,
            "lon": 8.7293306
        }
    },
    {
        "name": "ZHAW",
        "address": "Unknown",
        "coordinates": {
            "lat": 47.4934056,
            "lon": 8.716004
        }
    },
    {
        "name": "ZHAW",
        "address": "Unknown",
        "coordinates": {
            "lat": 47.2253317,
            "lon": 8.6789855
        }
    },
    {
        "name": "ZHAW",
        "address": "Unknown",
        "coordinates": {
            "lat": 47.2188918,
            "lon": 8.6795403
        }
    },
    {
        "name": "ZHAW",
        "address": "Unknown",
        "coordinates": {
            "lat": 47.4977598,
            "lon": 8.7263761
        }
    },
    {
        "name": "ZHAW Mensa Gr\u00fcental",
        "address": "Unknown",
        "coordinates": {
            "lat": 47.2195181,
            "lon": 8.6802462
        }
    },
    {
        "name": "ZHAW School of Engineering",
        "address": "Unknown",
        "coordinates": {
            "lat": 47.3776775,
            "lon": 8.5325988
        }
    },
    {
        "name": "ZHAW Soziale Arbeit",
        "address": "Unknown",
        "coordinates": {
            "lat": 47.3905533,
            "lon": 8.5118495
        }
    },
    {
        "name": "ZHAW Angewandte Psychologie",
        "address": "Unknown",
        "coordinates": {
            "lat": 47.3905035,
            "lon": 8.5120488
        }
    },
    {
        "name": "ZHAW",
        "address": "Unknown",
        "coordinates": {
            "lat": 47.4969327,
            "lon": 8.7173231
        }
    },
    {
        "name": "ZHAW W\u00e4denswil Campus Reidbach",
        "address": "Unknown",
        "coordinates": {
            "lat": 47.2188473,
            "lon": 8.6884703
        }
    },
    {
        "name": "ZHAW Winterthur Campus St. -Georgen- Platz",
        "address": "Unknown",
        "coordinates": {
            "lat": 47.49977,
            "lon": 8.7216
        }
    },
    {
        "name": "ZHAW Winterthur Campus St. -Georgen- Platz",
        "address": "Unknown",
        "coordinates": {
            "lat": 47.50355,
            "lon": 8.72789
        }
    }
]