[
    {
        "label": "<i>Schul- und Hochschulareal</i> <b>Université de Genève UNIGE, Pignon</b> (GE) - Genève",
        "lat": 46.194271087646484,
        "lon": 6.140400409698486,
        "Kategorie": "UH",
        "schoolshort": "UNIGE",
        "name": "Université de Genève - Uni Pignon",
        "quarter": "Jonction",
        "city": "Genève",
        "address": "Boulevard du Pont-d'Arve, 1200, Genève",
        "zipcode": "1200"
    },
    {
        "label": "<i>Schul- und Hochschulareal</i> <b>Université de Genève UNIGE, Ancienne École de Médecine</b> (GE) - Genève",
        "lat": 46.19590759277344,
        "lon": 6.136425971984863,
        "Kategorie": "UH",
        "schoolshort": "UNIGE",
        "name": "Unknown Amenity",
        "quarter": "Jonction",
        "city": "Genève",
        "address": "Rue de l'Ecole-de-Médecine, 1205, Genève",
        "zipcode": "1205"
    },
    {
        "label": "<i>Schul- und Hochschulareal</i> <b>Université de Genève, Valais Campus Sion</b> (VS) - Sion",
        "lat": 46.22985076904297,
        "lon": 7.398563861846924,
        "Kategorie": "UH",
        "schoolshort": "UNIGE",
        "name": "Fondation universitaire Kurt Bösch",
        "quarter": "Unknown Quarter",
        "city": "Unknown City",
        "address": "Chemin du Bosquet, 1950, ",
        "zipcode": "1950"
    },
    {
        "label": "<i>Schul- und Hochschulareal</i> <b>Université de Genève UNIGE, Sciences</b> (GE) - Genève",
        "lat": 46.19778823852539,
        "lon": 6.133457183837891,
        "Kategorie": "UH",
        "schoolshort": "UNIGE",
        "name": "Département de Génétique & Evolution (GenEV)",
        "quarter": "Jonction",
        "city": "Genève",
        "address": "Boulevard D'Yvoy, 1205, Genève",
        "zipcode": "1205"
    },
    {
        "label": "<i>Schul- und Hochschulareal</i> <b>Université de Genève UNIGE, Saint-Ours</b> (GE) - Genève",
        "lat": 46.1978759765625,
        "lon": 6.1443352699279785,
        "Kategorie": "UH",
        "schoolshort": "UNIGE",
        "name": "Unknown Amenity",
        "quarter": "Cité",
        "city": "Genève",
        "address": "Square de la Comédie, , Genève",
        "zipcode": "Unknown Zipcode"
    },
    {
        "label": "<i>Schul- und Hochschulareal</i> <b>Université de Genève UNIGE, Observatoire</b> (GE) - Versoix",
        "lat": 46.30844497680664,
        "lon": 6.133902072906494,
        "Kategorie": "UH",
        "schoolshort": "UNIGE",
        "name": "Unknown Amenity",
        "quarter": "Unknown Quarter",
        "city": "Unknown City",
        "address": "Chemin Pegasi, 1290, ",
        "zipcode": "1290"
    },
    {
        "label": "<i>Schul- und Hochschulareal</i> <b>Université de Genève UNIGE, Maraîchers</b> (GE) - Genève",
        "lat": 46.19906997680664,
        "lon": 6.136384010314941,
        "Kategorie": "UH",
        "schoolshort": "UNIGE",
        "name": "Unknown Amenity",
        "quarter": "Jonction",
        "city": "Genève",
        "address": "Rue des Maraîchers, 1200, Genève",
        "zipcode": "1200"
    },
    {
        "label": "<i>Schul- und Hochschulareal</i> <b>Université de Genève UNIGE, Ecogia</b> (GE) - Versoix",
        "lat": 46.291168212890625,
        "lon": 6.149912357330322,
        "Kategorie": "UH",
        "schoolshort": "UNIGE",
        "name": "Unknown Amenity",
        "quarter": "Unknown Quarter",
        "city": "Unknown City",
        "address": "Chemin d'Ecogia, 1290, ",
        "zipcode": "1290"
    },
    {
        "label": "<i>Schul- und Hochschulareal</i> <b>Université de Genève UNIGE</b> (GE) - Genève",
        "lat": 46.22184371948242,
        "lon": 6.147281169891357,
        "Kategorie": "UH",
        "schoolshort": "UNIGE",
        "name": "Hall",
        "quarter": "Pâquis",
        "city": "Genève",
        "address": "Chemin des Mines, 1202, Genève",
        "zipcode": "1202"
    },
    {
        "label": "<i>Schul- und Hochschulareal</i> <b>Université de Genève UNIGE, Landolt/Mirabeau</b> (GE) - Genève",
        "lat": 46.199031829833984,
        "lon": 6.143355846405029,
        "Kategorie": "UH",
        "schoolshort": "UNIGE",
        "name": "Unknown Amenity",
        "quarter": "Cité",
        "city": "Genève",
        "address": "Rue De-Candolle, 1205, Genève",
        "zipcode": "1205"
    },
    {
        "label": "<i>Schul- und Hochschulareal</i> <b>Université de Genève UNIGE, Comédie</b> (GE) - Genève",
        "lat": 46.19702911376953,
        "lon": 6.144376277923584,
        "Kategorie": "UH",
        "schoolshort": "UNIGE",
        "name": "Le Philanthrope",
        "quarter": "Cité",
        "city": "Genève",
        "address": "Boulevard des Philosophes, 1205, Genève",
        "zipcode": "1205"
    },
    {
        "label": "<i>Schul- und Hochschulareal</i> <b>Université de Genève UNIGE, Battelle</b> (GE) - Carouge (GE)",
        "lat": 46.17578125,
        "lon": 6.139766693115234,
        "Kategorie": "UH",
        "schoolshort": "UNIGE",
        "name": "Université Battelle",
        "quarter": "La Praille",
        "city": "Unknown City",
        "address": "Route de Drize, 1234, ",
        "zipcode": "1234"
    },
    {
        "label": "<i>Schul- und Hochschulareal</i> <b>Université de Genève UNIGE, Dufour</b> (GE) - Genève",
        "lat": 46.19963455200195,
        "lon": 6.142203330993652,
        "Kategorie": "UH",
        "schoolshort": "UNIGE",
        "name": "Université de Genève - Uni-Dufour",
        "quarter": "Cité",
        "city": "Genève",
        "address": "Square Horace-Bénédict-de-Saussure, 1205, Genève",
        "zipcode": "1205"
    },
    {
        "label": "<i>Schul- und Hochschulareal</i> <b>Université de Genève UNIGE, Philosophes</b> (GE) - Genève",
        "lat": 46.196205139160156,
        "lon": 6.1472487449646,
        "Kategorie": "UH",
        "schoolshort": "UNIGE",
        "name": "Unknown Amenity",
        "quarter": "Cité",
        "city": "Genève",
        "address": "Boulevard des Philosophes, 1205, Genève",
        "zipcode": "1205"
    },
    {
        "label": "<i>Schul- und Hochschulareal</i> <b>Université de Genève UNIGE, Carl Vogt</b> (GE) - Genève",
        "lat": 46.19731140136719,
        "lon": 6.136660575866699,
        "Kategorie": "UH",
        "schoolshort": "UNIGE",
        "name": "Université de Genève",
        "quarter": "Jonction",
        "city": "Genève",
        "address": "Boulevard Carl-Vogt, 1200, Genève",
        "zipcode": "1200"
    },
    {
        "label": "<i>Schul- und Hochschulareal</i> <b>Université de Genève UNIGE, S.I.P.</b> (GE) - Genève",
        "lat": 46.19923400878906,
        "lon": 6.138139724731445,
        "Kategorie": "UH",
        "schoolshort": "UNIGE",
        "name": "Unknown Amenity",
        "quarter": "Jonction",
        "city": "Genève",
        "address": "Rue Gourgas, 1205, Genève",
        "zipcode": "1205"
    },
    {
        "label": "<i>Schul- und Hochschulareal</i> <b>Université de Fribourg UNIFR, Rue Pierre-Aeby</b> (FR) - Fribourg",
        "lat": 46.80723190307617,
        "lon": 7.1600847244262695,
        "Kategorie": "UH",
        "schoolshort": "UNIFRI",
        "name": "Institut du monde antique et byzantin",
        "quarter": "Pérolles",
        "city": "Unknown City",
        "address": "Rue Pierre-Aeby, 1700, ",
        "zipcode": "1700"
    },
    {
        "label": "<i>Schul- und Hochschulareal</i> <b>Université de Fribourg UNIFR, Route des Bonnesfontaines</b> (FR) - Fribourg",
        "lat": 46.812294006347656,
        "lon": 7.1461310386657715,
        "Kategorie": "UH",
        "schoolshort": "UNIFRI",
        "name": "Université Fribourg - Sciences sociales et politiques sociales et travail social",
        "quarter": "Unknown Quarter",
        "city": "Unknown City",
        "address": "Route des Bonnesfontaines, 1763, ",
        "zipcode": "1763"
    },
    {
        "label": "<i>Schul- und Hochschulareal</i> <b>Université de Fribourg UNIFR, Rue St-Pierre-Canisius</b> (FR) - Fribourg",
        "lat": 46.805992126464844,
        "lon": 7.158041000366211,
        "Kategorie": "UH",
        "schoolshort": "UNIFRI",
        "name": "Unknown Amenity",
        "quarter": "Pérolles",
        "city": "Unknown City",
        "address": "Rue Saint-Pierre-Canisius, 1702, ",
        "zipcode": "1702"
    },
    {
        "label": "<i>Schul- und Hochschulareal</i> <b>Université de Fribourg UNIFR, Site Beauregard</b> (FR) - Fribourg",
        "lat": 46.80237579345703,
        "lon": 7.146145820617676,
        "Kategorie": "UH",
        "schoolshort": "UNIFRI",
        "name": "Unknown Amenity",
        "quarter": "Pérolles",
        "city": "Unknown City",
        "address": "Avenue Beauregard, 1700, ",
        "zipcode": "1700"
    },
    {
        "label": "<i>Schul- und Hochschulareal</i> <b>Université de Fribourg UNIFR, Site Pérolles</b> (FR) - Fribourg",
        "lat": 46.79270553588867,
        "lon": 7.155187606811523,
        "Kategorie": "UH",
        "schoolshort": "UNIFRI",
        "name": "Université de Fribourg - Pérolles",
        "quarter": "Pérolles",
        "city": "Unknown City",
        "address": "180, 1705, ",
        "zipcode": "1705"
    },
    {
        "label": "<i>Schul- und Hochschulareal</i> <b>Université de Fribourg UNIFR, Site Régina Mundi</b> (FR) - Fribourg",
        "lat": 46.796260833740234,
        "lon": 7.1565327644348145,
        "Kategorie": "UH",
        "schoolshort": "UNIFRI",
        "name": "Unknown Amenity",
        "quarter": "Pérolles",
        "city": "Unknown City",
        "address": "Rue Petermann-Aymon-de-Faucigny, 1700, ",
        "zipcode": "1700"
    },
    {
        "label": "<i>Schul- und Hochschulareal</i> <b>Université de Fribourg UNIFR, Rue du Criblet</b> (FR) - Fribourg",
        "lat": 46.805023193359375,
        "lon": 7.154306411743164,
        "Kategorie": "UH",
        "schoolshort": "UNIFRI",
        "name": "Unknown Amenity",
        "quarter": "Pérolles",
        "city": "Unknown City",
        "address": "Passage 23, 1700, ",
        "zipcode": "1700"
    },
    {
        "label": "<i>Schul- und Hochschulareal</i> <b>Université de Fribourg UNIFR, Site Beauregard</b> (FR) - Fribourg",
        "lat": 46.80247116088867,
        "lon": 7.1490678787231445,
        "Kategorie": "UH",
        "schoolshort": "UNIFRI",
        "name": "Unknown Amenity",
        "quarter": "Pérolles",
        "city": "Unknown City",
        "address": "Avenue Beauregard, 1700, ",
        "zipcode": "1700"
    },
    {
        "label": "<i>Schul- und Hochschulareal</i> <b>Université de Fribourg UNIFR, Site Miséricorde</b> (FR) - Fribourg",
        "lat": 46.80753707885742,
        "lon": 7.153051376342773,
        "Kategorie": "UH",
        "schoolshort": "UNIFRI",
        "name": "Unknown Amenity",
        "quarter": "Pérolles",
        "city": "Unknown City",
        "address": "Rue de Rome, 1700, ",
        "zipcode": "1700"
    },
    {
        "label": "<i>Schul- und Hochschulareal</i> <b>Université de Fribourg UNIFR, Site Arsenaux</b> (FR) - Fribourg",
        "lat": 46.7962532043457,
        "lon": 7.152294158935547,
        "Kategorie": "UH",
        "schoolshort": "UNIFRI",
        "name": "Unknown Amenity",
        "quarter": "Pérolles",
        "city": "Unknown City",
        "address": "Route des Arsenaux, 1700, ",
        "zipcode": "1700"
    },
    {
        "label": "<i>Schul- und Hochschulareal</i> <b>Université de Fribourg UNIFR, Rue de Morat</b> (FR) - Fribourg",
        "lat": 46.80936813354492,
        "lon": 7.1590352058410645,
        "Kategorie": "UH",
        "schoolshort": "UNIFRI",
        "name": "Unknown Amenity",
        "quarter": "Pérolles",
        "city": "Unknown City",
        "address": "Rue de Morat / Murtengasse, 1700, ",
        "zipcode": "1700"
    },
    {
        "label": "<i>Schul- und Hochschulareal</i> <b>Université de Fribourg UNIFR, Site Pérolles</b> (FR) - Fribourg",
        "lat": 46.793785095214844,
        "lon": 7.159756183624268,
        "Kategorie": "UH",
        "schoolshort": "UNIFRI",
        "name": "Unknown Amenity",
        "quarter": "Pérolles",
        "city": "Unknown City",
        "address": "Boulevard de Pérolles, 1700, ",
        "zipcode": "1700"
    },
    {
        "label": "<i>Schul- und Hochschulareal</i> <b>Université de Lausanne UNIL, Faculté des sciences sociales et politiques</b> (VD) - Lausanne",
        "lat": 46.516544342041016,
        "lon": 6.637124538421631,
        "Kategorie": "UH",
        "schoolshort": "UNIL",
        "name": "Unknown Amenity",
        "quarter": "Unknown Quarter",
        "city": "Lausanne",
        "address": "Avenue de la Gare, 1003, Lausanne",
        "zipcode": "1003"
    },
    {
        "label": "<i>Schul- und Hochschulareal</i> <b>Université de Lausanne, site de Sion</b> (VS) - Sion",
        "lat": 46.22985076904297,
        "lon": 7.398563861846924,
        "Kategorie": "UH",
        "schoolshort": "UNIL",
        "name": "Fondation universitaire Kurt Bösch",
        "quarter": "Unknown Quarter",
        "city": "Unknown City",
        "address": "Chemin du Bosquet, 1950, ",
        "zipcode": "1950"
    },
    {
        "label": "<i>Schul- und Hochschulareal</i> <b>Université de Lausanne UNIL, Site Epalinges</b> (VD) - Epalinges",
        "lat": 46.54258346557617,
        "lon": 6.6608171463012695,
        "Kategorie": "UH",
        "schoolshort": "UNIL",
        "name": "Unknown Amenity",
        "quarter": "Unknown Quarter",
        "city": "Unknown City",
        "address": "Route de la Corniche, 1066, ",
        "zipcode": "1066"
    },
    {
        "label": "<i>Schul- und Hochschulareal</i> <b>Université de Lausanne UNIL, Site Bugnon CHUV</b> (VD) - Lausanne",
        "lat": 46.52516555786133,
        "lon": 6.639979362487793,
        "Kategorie": "UH",
        "schoolshort": "UNIL",
        "name": "Centre hospitalier universitaire vaudois",
        "quarter": "Unknown Quarter",
        "city": "Lausanne",
        "address": "Rue du Bugnon, 1011, Lausanne",
        "zipcode": "1011"
    },
    {
        "label": "<i>Schul- und Hochschulareal</i> <b>Université de Lausanne UNIL, Hôpital ophtalmique Jules-Gonin</b> (VD) - Lausanne",
        "lat": 46.52456283569336,
        "lon": 6.622732639312744,
        "Kategorie": "UH",
        "schoolshort": "UNIL",
        "name": "Asile des aveugles Fondation Hôpital ophtalmique Jules-Gonin",
        "quarter": "Unknown Quarter",
        "city": "Lausanne",
        "address": "Avenue de France, 1004, Lausanne",
        "zipcode": "1004"
    },
    {
        "label": "<i>Schul- und Hochschulareal</i> <b>Université de Lausanne UNIL, Site Bugnon CHUV</b> (VD) - Lausanne",
        "lat": 46.5252571105957,
        "lon": 6.643126010894775,
        "Kategorie": "UH",
        "schoolshort": "UNIL",
        "name": "Centre hospitalier universitaire vaudois",
        "quarter": "Unknown Quarter",
        "city": "Lausanne",
        "address": "Rue du Bugnon, 1011, Lausanne",
        "zipcode": "1011"
    },
    {
        "label": "<i>Schul- und Hochschulareal</i> <b>Université de Lausanne UNIL, Clinique psychiatrique</b> (VD) - Prilly",
        "lat": 46.547019958496094,
        "lon": 6.607577323913574,
        "Kategorie": "UH",
        "schoolshort": "UNIL",
        "name": "Hôpital de Cery",
        "quarter": "Unknown Quarter",
        "city": "Unknown City",
        "address": "Route de Cery, 1008, ",
        "zipcode": "1008"
    },
    {
        "label": "<i>Schul- und Hochschulareal</i> <b>Université de Lausanne UNIL, Site Bugnon CHUV</b> (VD) - Lausanne",
        "lat": 46.52738571166992,
        "lon": 6.641106128692627,
        "Kategorie": "UH",
        "schoolshort": "UNIL",
        "name": "Pédiatrie des Falaises",
        "quarter": "Unknown Quarter",
        "city": "Lausanne",
        "address": "Chemin des Falaises, 1011, Lausanne",
        "zipcode": "1011"
    },
    {
        "label": "<i>Schul- und Hochschulareal</i> <b>Université de Lausanne UNIL, Site Dorigny</b> (VD) - Chavannes-près-Renens",
        "lat": 46.526493072509766,
        "lon": 6.579483985900879,
        "Kategorie": "UH",
        "schoolshort": "UNIL",
        "name": "Université de Lausanne",
        "quarter": "Unknown Quarter",
        "city": "Unknown City",
        "address": "Route de Praz-Véguey, 1022, ",
        "zipcode": "1022"
    },
    {
        "label": "<i>Schul- und Hochschulareal</i> <b>Université de Lausanne UNIL, Site Bugnon CHUV</b> (VD) - Lausanne",
        "lat": 46.527225494384766,
        "lon": 6.64322566986084,
        "Kategorie": "UH",
        "schoolshort": "UNIL",
        "name": "Centre hospitalier universitaire vaudois",
        "quarter": "Unknown Quarter",
        "city": "Lausanne",
        "address": "Rue du Bugnon, 1011, Lausanne",
        "zipcode": "1011"
    },
    {
        "label": "<i>Schul- und Hochschulareal</i> <b>Université de Lausanne UNIL, Site Bugnon CHUV</b> (VD) - Lausanne",
        "lat": 46.524375915527344,
        "lon": 6.638319969177246,
        "Kategorie": "UH",
        "schoolshort": "UNIL",
        "name": "Centre hospitalier universitaire vaudois",
        "quarter": "Unknown Quarter",
        "city": "Lausanne",
        "address": "Rue du Bugnon, 1011, Lausanne",
        "zipcode": "1011"
    },
    {
        "label": "<i>Schul- und Hochschulareal</i> <b>Université de Lausanne UNIL, Site Epalinges</b> (VD) - Lausanne,Epalinges",
        "lat": 46.54163360595703,
        "lon": 6.658852577209473,
        "Kategorie": "UH",
        "schoolshort": "UNIL",
        "name": "Unknown Amenity",
        "quarter": "Unknown Quarter",
        "city": "Lausanne",
        "address": "Route de la Corniche, 1010, Lausanne",
        "zipcode": "1010"
    },
    {
        "label": "<i><i>Schul Hochschulareal</i></i> <b>Universität</b> (BS) - Basel",
        "lat": 47.558231353759766,
        "lon": 7.583456039428711,
        "Kategorie": "UH",
        "schoolshort": "UNIBAS",
        "name": "Universität Basel",
        "quarter": "Vorstädte",
        "city": "Basel",
        "address": "Picassoplatz, 4010, Basel",
        "zipcode": "4010"
    },
    {
        "label": "<i>Schul- und Hochschulareal</i> <b>Universität Basel, Standort Mattenstrasse</b> (BS) - Basel",
        "lat": 47.56634521484375,
        "lon": 7.601956367492676,
        "Kategorie": "UH",
        "schoolshort": "UNIBAS",
        "name": "Unknown Amenity",
        "quarter": "Rosental",
        "city": "Basel",
        "address": "Mattenstrasse, 4058, Basel",
        "zipcode": "4058"
    },
    {
        "label": "<i>Schul- und Hochschulareal</i> <b>Universität Basel, Standort Bernoullistrasse</b> (BS) - Basel",
        "lat": 47.56000900268555,
        "lon": 7.581943035125732,
        "Kategorie": "UH",
        "schoolshort": "UNIBAS",
        "name": "Universität Basel",
        "quarter": "Vorstädte",
        "city": "Basel",
        "address": "Picassoplatz, 4010, Basel",
        "zipcode": "4010"
    },
    {
        "label": "<i>Schul- und Hochschulareal</i> <b>Universität Basel, Standort Hirschgässlein</b> (BS) - Basel",
        "lat": 47.55070877075195,
        "lon": 7.592851161956787,
        "Kategorie": "UH",
        "schoolshort": "UNIBAS",
        "name": "Unknown Amenity",
        "quarter": "Vorstädte",
        "city": "Basel",
        "address": "Hirschgässlein, 4051, Basel",
        "zipcode": "4051"
    },
    {
        "label": "<i>Schul- und Hochschulareal</i> <b>Universität Basel, Standort Holbeinstrasse</b> (BS) - Basel",
        "lat": 47.554603576660156,
        "lon": 7.583991527557373,
        "Kategorie": "UH",
        "schoolshort": "UNIBAS",
        "name": "Unknown Amenity",
        "quarter": "Am Ring",
        "city": "Basel",
        "address": "Holbeinstrasse, 4051, Basel",
        "zipcode": "4051"
    },
    {
        "label": "<i>Schul- und Hochschulareal</i> <b>Universität Basel, Standort Spalenring</b> (BS) - Basel",
        "lat": 47.55495834350586,
        "lon": 7.576392650604248,
        "Kategorie": "UH",
        "schoolshort": "UNIBAS",
        "name": "Unknown Amenity",
        "quarter": "Am Ring",
        "city": "Basel",
        "address": "Spalenring, 4055, Basel",
        "zipcode": "4055"
    },
    {
        "label": "<i>Schul- und Hochschulareal</i> <b>Universität Basel, Standort Steinengraben</b> (BS) - Basel",
        "lat": 47.55427551269531,
        "lon": 7.585071086883545,
        "Kategorie": "UH",
        "schoolshort": "UNIBAS",
        "name": "Unknown Amenity",
        "quarter": "Am Ring",
        "city": "Basel",
        "address": "Steinengraben, 4051, Basel",
        "zipcode": "4051"
    },
    {
        "label": "<i>Schul- und Hochschulareal</i> <b>Universität Basel, Standort St.Johanns-Vorstadt</b> (BS) - Basel",
        "lat": 47.56266784667969,
        "lon": 7.585416793823242,
        "Kategorie": "UH",
        "schoolshort": "UNIBAS",
        "name": "Unknown Amenity",
        "quarter": "Vorstädte",
        "city": "Basel",
        "address": "St. Johanns-Vorstadt, 4031, Basel",
        "zipcode": "4031"
    },
    {
        "label": "<i>Schul- und Hochschulareal</i> <b>Universität Basel, Standort Bernoullistrasse</b> (BS) - Basel",
        "lat": 47.560585021972656,
        "lon": 7.580715179443359,
        "Kategorie": "UH",
        "schoolshort": "UNIBAS",
        "name": "Universität Basel",
        "quarter": "Vorstädte",
        "city": "Basel",
        "address": "Picassoplatz, 4010, Basel",
        "zipcode": "4010"
    },
    {
        "label": "<i>Schul- und Hochschulareal</i> <b>Universität Basel, Standort Gellertstrasse</b> (BS) - Basel",
        "lat": 47.551605224609375,
        "lon": 7.612016677856445,
        "Kategorie": "UH",
        "schoolshort": "UNIBAS",
        "name": "Unknown Amenity",
        "quarter": "St. Alban",
        "city": "Basel",
        "address": "Gellertstrasse, 4052, Basel",
        "zipcode": "4052"
    },
    {
        "label": "<i>Schul- und Hochschulareal</i> <b>Universität Basel, Standort Bernoullistrasse</b> (BS) - Basel",
        "lat": 47.56023025512695,
        "lon": 7.5811567306518555,
        "Kategorie": "UH",
        "schoolshort": "UNIBAS",
        "name": "Universität Basel",
        "quarter": "Vorstädte",
        "city": "Basel",
        "address": "Picassoplatz, 4010, Basel",
        "zipcode": "4010"
    },
    {
        "label": "<i>Schul- und Hochschulareal</i> <b>Universität Basel, Standort Schönbeinstrasse</b> (BS) - Basel",
        "lat": 47.56061935424805,
        "lon": 7.581602096557617,
        "Kategorie": "UH",
        "schoolshort": "UNIBAS",
        "name": "Institut für Pathologie Universitätsspital Basel",
        "quarter": "Vorstädte",
        "city": "Basel",
        "address": "Schönbeinstrasse, 4031, Basel",
        "zipcode": "4031"
    },
    {
        "label": "<i>Schul- und Hochschulareal</i> <b>Universität Basel, Standort Rheinsprung</b> (BS) - Basel",
        "lat": 47.55882263183594,
        "lon": 7.589489459991455,
        "Kategorie": "UH",
        "schoolshort": "UNIBAS",
        "name": "Unknown Amenity",
        "quarter": "Altstadt Grossbasel",
        "city": "Basel",
        "address": "Rheinsprung, 4000, Basel",
        "zipcode": "4000"
    },
    {
        "label": "<i>Schul- und Hochschulareal</i> <b>Universität Basel, Standort Peter Merian-Weg</b> (BS) - Basel",
        "lat": 47.54524230957031,
        "lon": 7.59752893447876,
        "Kategorie": "UH",
        "schoolshort": "UNIBAS",
        "name": "Wirtschaftswissenschaftliche Fakultät",
        "quarter": "St. Alban",
        "city": "Basel",
        "address": "Peter Merian-Weg, 4053, Basel",
        "zipcode": "4053"
    },
    {
        "label": "<i>Schul- und Hochschulareal</i> <b>Universität Basel, Standort St.Alban-Graben</b> (BS) - Basel",
        "lat": 47.55388641357422,
        "lon": 7.593663215637207,
        "Kategorie": "UH",
        "schoolshort": "UNIBAS",
        "name": "Unknown Amenity",
        "quarter": "Vorstädte",
        "city": "Basel",
        "address": "St. Alban-Graben, 4051, Basel",
        "zipcode": "4051"
    },
    {
        "label": "<i>Schul- und Hochschulareal</i> <b>Universität Basel, Standort Klingelbergstrasse</b> (BS) - Basel",
        "lat": 47.56162643432617,
        "lon": 7.580340385437012,
        "Kategorie": "UH",
        "schoolshort": "UNIBAS",
        "name": "Unknown Amenity",
        "quarter": "Am Ring",
        "city": "Basel",
        "address": "Klingelbergstrasse, 4056, Basel",
        "zipcode": "4056"
    },
    {
        "label": "<i>Schul- und Hochschulareal</i> <b>Universität Basel, Standort Petersplatz</b> (BS) - Basel",
        "lat": 47.558692932128906,
        "lon": 7.582340240478516,
        "Kategorie": "UH",
        "schoolshort": "UNIBAS",
        "name": "Universität Basel",
        "quarter": "Vorstädte",
        "city": "Basel",
        "address": "Picassoplatz, 4010, Basel",
        "zipcode": "4010"
    },
    {
        "label": "<i>Schul- und Hochschulareal</i> <b>Universität Basel, Standort Petersgraben</b> (BS) - Basel",
        "lat": 47.56101989746094,
        "lon": 7.5846686363220215,
        "Kategorie": "UH",
        "schoolshort": "UNIBAS",
        "name": "Universitätsspital Basel",
        "quarter": "Vorstädte",
        "city": "Basel",
        "address": "Spitalstrasse, 4031, Basel",
        "zipcode": "4031"
    },
    {
        "label": "<i>Schul- und Hochschulareal</i> <b>Universität Basel, Standort Petersgraben</b> (BS) - Basel",
        "lat": 47.55906677246094,
        "lon": 7.584677696228027,
        "Kategorie": "UH",
        "schoolshort": "UNIBAS",
        "name": "Unknown Amenity",
        "quarter": "Altstadt Grossbasel",
        "city": "Basel",
        "address": "Peterskirchplatz, 4051, Basel",
        "zipcode": "4051"
    },
    {
        "label": "<i>Schul- und Hochschulareal</i> <b>Universität Basel, Standort Steinengraben</b> (BS) - Basel",
        "lat": 47.55562210083008,
        "lon": 7.5850324630737305,
        "Kategorie": "UH",
        "schoolshort": "UNIBAS",
        "name": "Unknown Amenity",
        "quarter": "Vorstädte",
        "city": "Basel",
        "address": "Steinengraben, 4051, Basel",
        "zipcode": "4051"
    },
    {
        "label": "<i>Schul- und Hochschulareal</i> <b>Universität Basel, Standort Mittlere Strasse</b> (BS) - Basel",
        "lat": 47.56243133544922,
        "lon": 7.576293468475342,
        "Kategorie": "UH",
        "schoolshort": "UNIBAS",
        "name": "Augenklinik des Universitätsspitals Basel",
        "quarter": "Am Ring",
        "city": "Basel",
        "address": "Mittlere Strasse, 4031, Basel",
        "zipcode": "4031"
    },
    {
        "label": "<i>Schul- und Hochschulareal</i> <b>Universität Basel, Standort Heuberg</b> (BS) - Basel",
        "lat": 47.55576705932617,
        "lon": 7.58766508102417,
        "Kategorie": "UH",
        "schoolshort": "UNIBAS",
        "name": "Unknown Amenity",
        "quarter": "Altstadt Grossbasel",
        "city": "Basel",
        "address": "Heuberg, 4051, Basel",
        "zipcode": "4051"
    },
    {
        "label": "<i>Schul- und Hochschulareal</i> <b>Universität Basel, Standort Rheinsprung</b> (BS) - Basel",
        "lat": 47.558189392089844,
        "lon": 7.590259075164795,
        "Kategorie": "UH",
        "schoolshort": "UNIBAS",
        "name": "Unknown Amenity",
        "quarter": "Altstadt Grossbasel",
        "city": "Basel",
        "address": "Rheinsprung, 4051, Basel",
        "zipcode": "4051"
    },
    {
        "label": "<i>Schul- und Hochschulareal</i> <b>Universität Basel, Standort Schanzenstrasse</b> (BS) - Basel",
        "lat": 47.562171936035156,
        "lon": 7.581483840942383,
        "Kategorie": "UH",
        "schoolshort": "UNIBAS",
        "name": "Unknown Amenity",
        "quarter": "Am Ring",
        "city": "Basel",
        "address": "Schanzenstrasse, 4056, Basel",
        "zipcode": "4056"
    },
    {
        "label": "<i>Schul- und Hochschulareal</i> <b>Universität Basel, Standort Gewerbestrasse</b> (BL) - Allschwil",
        "lat": 47.55746841430664,
        "lon": 7.544740676879883,
        "Kategorie": "UH",
        "schoolshort": "UNIBAS",
        "name": "Invento",
        "quarter": "Unknown Quarter",
        "city": "Unknown City",
        "address": "Gewerbestrasse, 4123, ",
        "zipcode": "4123"
    },
    {
        "label": "<i>Schul- und Hochschulareal</i> <b>Universität Basel, Standort Münsterplatz</b> (BS) - Basel",
        "lat": 47.5569953918457,
        "lon": 7.590781211853027,
        "Kategorie": "UH",
        "schoolshort": "UNIBAS",
        "name": "Unknown Amenity",
        "quarter": "Altstadt Grossbasel",
        "city": "Basel",
        "address": "Münsterplatz, 4051, Basel",
        "zipcode": "4051"
    },
    {
        "label": "<i>Schul- und Hochschulareal</i> <b>Universität Basel, Standort Maiengasse</b> (BS) - Basel",
        "lat": 47.56112289428711,
        "lon": 7.57801628112793,
        "Kategorie": "UH",
        "schoolshort": "UNIBAS",
        "name": "Unknown Amenity",
        "quarter": "Am Ring",
        "city": "Basel",
        "address": "Maiengasse, 4056, Basel",
        "zipcode": "4056"
    },
    {
        "label": "<i>Schul- und Hochschulareal</i> <b>Universität Basel, Standort Schönbeinstrasse</b> (BS) - Basel",
        "lat": 47.55903625488281,
        "lon": 7.581610202789307,
        "Kategorie": "UH",
        "schoolshort": "UNIBAS",
        "name": "Universität Basel",
        "quarter": "Vorstädte",
        "city": "Basel",
        "address": "Picassoplatz, 4010, Basel",
        "zipcode": "4010"
    },
    {
        "label": "<i>Schul- und Hochschulareal</i> <b>Universität Basel, Standort Hebelstrasse</b> (BS) - Basel",
        "lat": 47.55998611450195,
        "lon": 7.584112167358398,
        "Kategorie": "UH",
        "schoolshort": "UNIBAS",
        "name": "Universität Basel",
        "quarter": "Vorstädte",
        "city": "Basel",
        "address": "Picassoplatz, 4010, Basel",
        "zipcode": "4010"
    },
    {
        "label": "<i>Schul- und Hochschulareal</i> <b>Universität Basel, Standort Pestalozzistrasse</b> (BS) - Basel",
        "lat": 47.56483459472656,
        "lon": 7.579587459564209,
        "Kategorie": "UH",
        "schoolshort": "UNIBAS",
        "name": "Universität Basel",
        "quarter": "Vorstädte",
        "city": "Basel",
        "address": "Picassoplatz, 4010, Basel",
        "zipcode": "4010"
    },
    {
        "label": "<i>Schul- und Hochschulareal</i> <b>Universität Basel, Standort Riehenstrasse</b> (BS) - Basel",
        "lat": 47.56443786621094,
        "lon": 7.606314182281494,
        "Kategorie": "UH",
        "schoolshort": "UNIBAS",
        "name": "Unknown Amenity",
        "quarter": "Wettstein",
        "city": "Basel",
        "address": "Zugang Sandgrube Süd, 4058, Basel",
        "zipcode": "4058"
    },
    {
        "label": "<i>Schul- und Hochschulareal</i> <b>Universität Basel, Standort Klingelbergstrasse</b> (BS) - Basel",
        "lat": 47.564697265625,
        "lon": 7.5790019035339355,
        "Kategorie": "UH",
        "schoolshort": "UNIBAS",
        "name": "Universität Basel",
        "quarter": "Vorstädte",
        "city": "Basel",
        "address": "Picassoplatz, 4010, Basel",
        "zipcode": "4010"
    },
    {
        "label": "<i>Schul- und Hochschulareal</i> <b>Universität Basel, Standort Spitalstrasse</b> (BS) - Basel",
        "lat": 47.56391525268555,
        "lon": 7.58121919631958,
        "Kategorie": "UH",
        "schoolshort": "UNIBAS",
        "name": "Universität Basel",
        "quarter": "Vorstädte",
        "city": "Basel",
        "address": "Picassoplatz, 4010, Basel",
        "zipcode": "4010"
    },
    {
        "label": "<i>Schul- und Hochschulareal</i> <b>Universität Basel, Standort Nadelberg</b> (BS) - Basel",
        "lat": 47.55842208862305,
        "lon": 7.585227012634277,
        "Kategorie": "UH",
        "schoolshort": "UNIBAS",
        "name": "Hof-Brunnen",
        "quarter": "Altstadt Grossbasel",
        "city": "Basel",
        "address": "Nadelberg, 4051, Basel",
        "zipcode": "4051"
    },
    {
        "label": "<i>Schul- und Hochschulareal</i> <b>Universität Basel, Standort St. Johanns-Ring</b> (BS) - Basel",
        "lat": 47.56534194946289,
        "lon": 7.5794782638549805,
        "Kategorie": "UH",
        "schoolshort": "UNIBAS",
        "name": "Universität Basel",
        "quarter": "Vorstädte",
        "city": "Basel",
        "address": "Picassoplatz, 4010, Basel",
        "zipcode": "4010"
    },
    {
        "label": "<i>Schul- und Hochschulareal</i> <b>Universität Basel, Standort Spitalstrasse</b> (BS) - Basel",
        "lat": 47.562381744384766,
        "lon": 7.58323860168457,
        "Kategorie": "UH",
        "schoolshort": "UNIBAS",
        "name": "Universität Basel",
        "quarter": "Vorstädte",
        "city": "Basel",
        "address": "Picassoplatz, 4010, Basel",
        "zipcode": "4010"
    },
    {
        "label": "<i>Schul- und Hochschulareal</i> <b>Universität Basel, Standort Petersgraben</b> (BS) - Basel",
        "lat": 47.558414459228516,
        "lon": 7.584747314453125,
        "Kategorie": "UH",
        "schoolshort": "UNIBAS",
        "name": "Unknown Amenity",
        "quarter": "Altstadt Grossbasel",
        "city": "Basel",
        "address": "Nadelberg, 4051, Basel",
        "zipcode": "4051"
    },
    {
        "label": "<i>Schul- und Hochschulareal</i> <b>Universität Basel, Standort Klingelbergstrasse</b> (BS) - Basel",
        "lat": 47.56303405761719,
        "lon": 7.579653263092041,
        "Kategorie": "UH",
        "schoolshort": "UNIBAS",
        "name": "Unknown Amenity",
        "quarter": "Am Ring",
        "city": "Basel",
        "address": "Klingelbergstrasse, 4056, Basel",
        "zipcode": "4056"
    },
    {
        "label": "<i>Schul- und Hochschulareal</i> <b>Universität Basel, Standort Spiegelgasse</b> (BS) - Basel",
        "lat": 47.5601921081543,
        "lon": 7.587279796600342,
        "Kategorie": "UH",
        "schoolshort": "UNIBAS",
        "name": "Universität Basel",
        "quarter": "Vorstädte",
        "city": "Basel",
        "address": "Picassoplatz, 4010, Basel",
        "zipcode": "4010"
    },
    {
        "label": "<i>Schul- und Hochschulareal</i> <b>Universität Basel, Standort Totengässlein</b> (BS) - Basel",
        "lat": 47.55858612060547,
        "lon": 7.586130142211914,
        "Kategorie": "UH",
        "schoolshort": "UNIBAS",
        "name": "Unknown Amenity",
        "quarter": "Altstadt Grossbasel",
        "city": "Basel",
        "address": "Totengässlein, 4051, Basel",
        "zipcode": "4051"
    },
    {
        "label": "<i>Schul- und Hochschulareal</i> <b>Universität Basel, Standort Wilhelm Klein-Strasse</b> (BS) - Basel",
        "lat": 47.571590423583984,
        "lon": 7.565068244934082,
        "Kategorie": "UH",
        "schoolshort": "UNIBAS",
        "name": "Universitäre Psychiatrische Kliniken Basel",
        "quarter": "St. Johann",
        "city": "Basel",
        "address": "Wilhelm Klein-Strasse, 4012, Basel",
        "zipcode": "4012"
    },
    {
        "label": "<i>Schul- und Hochschulareal</i> <b>Universität Basel, Standort Burgfelderstrasse</b> (BS) - Basel",
        "lat": 47.56471633911133,
        "lon": 7.565530776977539,
        "Kategorie": "UH",
        "schoolshort": "UNIBAS",
        "name": "Felix-Platter-Spital",
        "quarter": "St. Johann",
        "city": "Basel",
        "address": "Dammerkirchstrasse, 4012, Basel",
        "zipcode": "4012"
    },
    {
        "label": "<i>Schul- und Hochschulareal</i> <b>Universität Basel, Standort Leimenstrasse</b> (BS) - Basel",
        "lat": 47.5533332824707,
        "lon": 7.581186771392822,
        "Kategorie": "UH",
        "schoolshort": "UNIBAS",
        "name": "Unknown Amenity",
        "quarter": "Am Ring",
        "city": "Basel",
        "address": "Leimenstrasse, 4051, Basel",
        "zipcode": "4051"
    },
    {
        "label": "<i>Schul- und Hochschulareal</i> <b>Universität Basel, Standort Spitalstrasse</b> (BS) - Basel",
        "lat": 47.565093994140625,
        "lon": 7.580080986022949,
        "Kategorie": "UH",
        "schoolshort": "UNIBAS",
        "name": "Universität Basel",
        "quarter": "Vorstädte",
        "city": "Basel",
        "address": "Picassoplatz, 4010, Basel",
        "zipcode": "4010"
    },
    {
        "label": "<i>Schul- und Hochschulareal</i> <b>Universität Basel, Standort Hebelstrasse</b> (BS) - Basel",
        "lat": 47.561126708984375,
        "lon": 7.582394123077393,
        "Kategorie": "UH",
        "schoolshort": "UNIBAS",
        "name": "Unknown Amenity",
        "quarter": "Vorstädte",
        "city": "Basel",
        "address": "Hebelstrasse, 4056, Basel",
        "zipcode": "4056"
    },
    {
        "label": "<i>Schul- und Hochschulareal</i> <b>Universität Basel, Standort Birmannsgasse</b> (BS) - Basel",
        "lat": 47.55849838256836,
        "lon": 7.578746318817139,
        "Kategorie": "UH",
        "schoolshort": "UNIBAS",
        "name": "Unknown Amenity",
        "quarter": "Am Ring",
        "city": "Basel",
        "address": "Birmannsgasse, 4055, Basel",
        "zipcode": "4055"
    },
    {
        "label": "<i>Schul- und Hochschulareal</i> <b>Universität Basel, Standort Klingelbergstrasse</b> (BS) - Basel",
        "lat": 47.5637092590332,
        "lon": 7.580174922943115,
        "Kategorie": "UH",
        "schoolshort": "UNIBAS",
        "name": "Universität Basel",
        "quarter": "Vorstädte",
        "city": "Basel",
        "address": "Picassoplatz, 4010, Basel",
        "zipcode": "4010"
    },
    {
        "label": "<i>Schul- und Hochschulareal</i> <b>Universität Basel, Standort Petersgraben</b> (BS) - Basel",
        "lat": 47.55757141113281,
        "lon": 7.584752082824707,
        "Kategorie": "UH",
        "schoolshort": "UNIBAS",
        "name": "Glatscharia Üna",
        "quarter": "Altstadt Grossbasel",
        "city": "Basel",
        "address": "Rosshofgasse, 4051, Basel",
        "zipcode": "4051"
    },
    {
        "label": "<i>Schul- und Hochschulareal</i> <b>Universität Basel, Standort Missionsstrasse</b> (BS) - Basel",
        "lat": 47.56155776977539,
        "lon": 7.5756611824035645,
        "Kategorie": "UH",
        "schoolshort": "UNIBAS",
        "name": "Unknown Amenity",
        "quarter": "Am Ring",
        "city": "Basel",
        "address": "Missionsstrasse, 4055, Basel",
        "zipcode": "4055"
    },
    {
        "label": "<i>Schul- und Hochschulareal</i> <b>Universität Basel, Standort Hebelstrasse</b> (BS) - Basel",
        "lat": 47.55992889404297,
        "lon": 7.583789348602295,
        "Kategorie": "UH",
        "schoolshort": "UNIBAS",
        "name": "Universität Basel",
        "quarter": "Vorstädte",
        "city": "Basel",
        "address": "Picassoplatz, 4010, Basel",
        "zipcode": "4010"
    },
    {
        "label": "<i>Schul- und Hochschulareal</i> <b>Ecole polytechnique fédérale de Lausanne EPFL</b> (NE) - Neuchâtel",
        "lat": 46.99785614013672,
        "lon": 6.945991516113281,
        "Kategorie": "UH",
        "schoolshort": "EPFL",
        "name": "Unknown Amenity",
        "quarter": "Unknown Quarter",
        "city": "Unknown City",
        "address": "Rue de la Maladière, 2000, ",
        "zipcode": "2000"
    },
    {
        "label": "<i>Schul- und Hochschulareal</i> <b>Ecole polytechnique fédérale de Lausanne EPFL</b> (VD) - Ecublens (VD)",
        "lat": 46.52412033081055,
        "lon": 6.565562725067139,
        "Kategorie": "UH",
        "schoolshort": "EPFL",
        "name": "Unknown Amenity",
        "quarter": "Unknown Quarter",
        "city": "Unknown City",
        "address": "Chemin des Triaudes, 1024, ",
        "zipcode": "1024"
    },
    {
        "label": "<i>Schul- und Hochschulareal</i> <b>Ecole polytechnique fédérale de Lausanne EPFL</b> (VD) - Saint-Sulpice (VD),Ecublens (VD)",
        "lat": 46.516510009765625,
        "lon": 6.565594673156738,
        "Kategorie": "UH",
        "schoolshort": "EPFL",
        "name": "Unknown Amenity",
        "quarter": "Unknown Quarter",
        "city": "Unknown City",
        "address": "Route Cantonale, 1025, ",
        "zipcode": "1025"
    },
    {
        "label": "<i>Schul- und Hochschulareal</i> <b>Ecole polytechnique fédérale de Lausanne EPFL</b> (GE) - Genève",
        "lat": 46.22184371948242,
        "lon": 6.147281169891357,
        "Kategorie": "UH",
        "schoolshort": "EPFL",
        "name": "Hall",
        "quarter": "Pâquis",
        "city": "Genève",
        "address": "Chemin des Mines, 1202, Genève",
        "zipcode": "1202"
    },
    {
        "label": "<i>Schul- und Hochschulareal</i> <b>Ecole polytechnique fédérale de Lausanne EPFL, Laboratoire Bâle (laba)</b> (BS) - Basel",
        "lat": 47.56303405761719,
        "lon": 7.584393501281738,
        "Kategorie": "UH",
        "schoolshort": "EPFL",
        "name": "Brasserie Hugo",
        "quarter": "Vorstädte",
        "city": "Basel",
        "address": "St. Johanns-Vorstadt, 4031, Basel",
        "zipcode": "4031"
    },
    {
        "label": "<i>Schul- und Hochschulareal</i> <b>Ecole polytechnique fédérale de Lausanne EPFL, Campus Sion</b> (VS) - Sion",
        "lat": 46.2269172668457,
        "lon": 7.361345291137695,
        "Kategorie": "UH",
        "schoolshort": "EPFL",
        "name": "EPFL Valais Wallis",
        "quarter": "Unknown Quarter",
        "city": "Unknown City",
        "address": "Rue de l'Industrie, 1950, ",
        "zipcode": "1950"
    },
    {
        "label": "<i>Schul- und Hochschulareal</i> <b>Ecole polytechnique fédérale de Lausanne EPFL</b> (VD) - Ecublens (VD)",
        "lat": 46.52427291870117,
        "lon": 6.563052654266357,
        "Kategorie": "UH",
        "schoolshort": "EPFL",
        "name": "Unknown Amenity",
        "quarter": "Unknown Quarter",
        "city": "Unknown City",
        "address": "Chemin de la Raye, 1024, ",
        "zipcode": "1024"
    },
    {
        "label": "<i>Schul- und Hochschulareal</i> <b>Ecole polytechnique fédérale de Lausanne EPFL</b> (VD) - Ecublens (VD)",
        "lat": 46.522037506103516,
        "lon": 6.571329116821289,
        "Kategorie": "UH",
        "schoolshort": "EPFL",
        "name": "Unknown Amenity",
        "quarter": "Unknown Quarter",
        "city": "Unknown City",
        "address": "Route de la Sorge, 1015, ",
        "zipcode": "1015"
    },
    {
        "label": "<i>Schul- und Hochschulareal</i> <b>Ecole polytechnique fédérale de Lausanne EPFL</b> (VD) - Ecublens (VD)",
        "lat": 46.51791763305664,
        "lon": 6.560234069824219,
        "Kategorie": "UH",
        "schoolshort": "EPFL",
        "name": "Unknown Amenity",
        "quarter": "Unknown Quarter",
        "city": "Unknown City",
        "address": "Chemin de la Dent d'Oche, 1024, ",
        "zipcode": "1024"
    },
    {
        "label": "<i>Schul- und Hochschulareal</i> <b>Ecole polytechnique fédérale de Lausanne EPFL</b> (VD) - Ecublens (VD)",
        "lat": 46.524662017822266,
        "lon": 6.563817024230957,
        "Kategorie": "UH",
        "schoolshort": "EPFL",
        "name": "Unknown Amenity",
        "quarter": "Unknown Quarter",
        "city": "Unknown City",
        "address": "Chemin de la Raye, 1024, ",
        "zipcode": "1024"
    },
    {
        "label": "<i>Schul- und Hochschulareal</i> <b>Eidgenössische Technische Hochschule Zürich ETHZ, Standort Zentrum</b> (ZH) - Zürich",
        "lat": 47.382408142089844,
        "lon": 8.544960975646973,
        "Kategorie": "UH",
        "schoolshort": "ETHZ",
        "name": "Unknown Amenity",
        "quarter": "Oberstrass",
        "city": "Zürich",
        "address": "Sonneggstrasse, 8006, Zürich",
        "zipcode": "8006"
    },
    {
        "label": "<i>Schul- und Hochschulareal</i> <b>Eidgenössische Technische Hochschule Zürich ETHZ, Standort Schwerzenbach</b> (ZH) - Schwerzenbach",
        "lat": 47.38469314575195,
        "lon": 8.655211448669434,
        "Kategorie": "UH",
        "schoolshort": "ETHZ",
        "name": "ETH SLA",
        "quarter": "Unknown Quarter",
        "city": "Unknown City",
        "address": "Schorenstrasse, 8603, ",
        "zipcode": "8603"
    },
    {
        "label": "<i>Schul- und Hochschulareal</i> <b>Eidgenössische Technische Hochschule Zürich ETHZ</b> (ZH) - Zürich",
        "lat": 47.38984680175781,
        "lon": 8.515568733215332,
        "Kategorie": "UH",
        "schoolshort": "ETHZ",
        "name": "Unknown Amenity",
        "quarter": "Industriequartier",
        "city": "Zürich",
        "address": "Technoparkstrasse, 8010, Zürich",
        "zipcode": "8010"
    },
    {
        "label": "<i>Schul- und Hochschulareal</i> <b>Eidgenössische Technische Hochschule Zürich ETHZ, Standort Zentrum</b> (ZH) - Zürich",
        "lat": 47.37825393676758,
        "lon": 8.554793357849121,
        "Kategorie": "UH",
        "schoolshort": "ETHZ",
        "name": "Unknown Amenity",
        "quarter": "Fluntern",
        "city": "Zürich",
        "address": "Hochstrasse, 8044, Zürich",
        "zipcode": "8044"
    },
    {
        "label": "<i>Schul- und Hochschulareal</i> <b>Eidgenössische Technische Hochschule Zürich ETHZ, Standort Zentrum</b> (ZH) - Zürich",
        "lat": 47.381675720214844,
        "lon": 8.544214248657227,
        "Kategorie": "UH",
        "schoolshort": "ETHZ",
        "name": "Unknown Amenity",
        "quarter": "Unterstrass",
        "city": "Zürich",
        "address": "Weinbergstrasse, 8006, Zürich",
        "zipcode": "8006"
    },
    {
        "label": "<i>Schul- und Hochschulareal</i> <b>Eidgenössische Technische Hochschule Zürich ETHZ, Standort Zentrum</b> (ZH) - Zürich",
        "lat": 47.38301086425781,
        "lon": 8.54073715209961,
        "Kategorie": "UH",
        "schoolshort": "ETHZ",
        "name": "Unknown Amenity",
        "quarter": "Unterstrass",
        "city": "Zürich",
        "address": "Wasserwerkstrasse, 8006, Zürich",
        "zipcode": "8006"
    },
    {
        "label": "<i>Schul- und Hochschulareal</i> <b>Eidgenössische Technische Hochschule Zürich ETHZ, Standort Zentrum</b> (ZH) - Zürich",
        "lat": 47.38311767578125,
        "lon": 8.544812202453613,
        "Kategorie": "UH",
        "schoolshort": "ETHZ",
        "name": "Unknown Amenity",
        "quarter": "Oberstrass",
        "city": "Zürich",
        "address": "Turnerstrasse, 8006, Zürich",
        "zipcode": "8006"
    },
    {
        "label": "<i>Schul- und Hochschulareal</i> <b>Eidgenössische Technische Hochschule Zürich ETHZ, Standort Oerlikon</b> (ZH) - Zürich",
        "lat": 47.417388916015625,
        "lon": 8.539772033691406,
        "Kategorie": "UH",
        "schoolshort": "ETHZ",
        "name": "Unknown Amenity",
        "quarter": "Seebach",
        "city": "Zürich",
        "address": "Neunbrunnenstrasse, 8050, Zürich",
        "zipcode": "8050"
    },
    {
        "label": "<i>Schul- und Hochschulareal</i> <b>Eidgenössische Technische Hochschule Zürich ETHZ, Standort Zentrum</b> (ZH) - Zürich",
        "lat": 47.373191833496094,
        "lon": 8.552813529968262,
        "Kategorie": "UH",
        "schoolshort": "ETHZ",
        "name": "Unknown Amenity",
        "quarter": "Fluntern",
        "city": "Zürich",
        "address": "Zürichbergstrasse, 8032, Zürich",
        "zipcode": "8032"
    },
    {
        "label": "<i>Schul- und Hochschulareal</i> <b>Eidgenössische Technische Hochschule Zürich ETHZ, Standort Zentrum</b> (ZH) - Zürich",
        "lat": 47.37604904174805,
        "lon": 8.54543399810791,
        "Kategorie": "UH",
        "schoolshort": "ETHZ",
        "name": "Unknown Amenity",
        "quarter": "Altstadt",
        "city": "Zürich",
        "address": "Hirschengraben, 8001, Zürich",
        "zipcode": "8001"
    },
    {
        "label": "<i>Schul- und Hochschulareal</i> <b>Eidgenössische Technische Hochschule Zürich ETHZ, Standort Zentrum</b> (ZH) - Zürich",
        "lat": 47.375205993652344,
        "lon": 8.545952796936035,
        "Kategorie": "UH",
        "schoolshort": "ETHZ",
        "name": "Archiv für Zeitgeschichte der ETH Zürich",
        "quarter": "Altstadt",
        "city": "Zürich",
        "address": "Hirschengraben, 8001, Zürich",
        "zipcode": "8001"
    },
    {
        "label": "<i>Schul- und Hochschulareal</i> <b>Eidgenössische Technische Hochschule Zürich ETHZ, Standort Zentrum</b> (ZH) - Zürich",
        "lat": 47.38020324707031,
        "lon": 8.543832778930664,
        "Kategorie": "UH",
        "schoolshort": "ETHZ",
        "name": "Unknown Amenity",
        "quarter": "Unterstrass",
        "city": "Zürich",
        "address": "Weinbergstrasse, 8006, Zürich",
        "zipcode": "8006"
    },
    {
        "label": "<i>Schul- und Hochschulareal</i> <b>Eidgenössische Technische Hochschule Zürich ETHZ, Standort Zentrum</b> (ZH) - Zürich",
        "lat": 47.38267517089844,
        "lon": 8.545039176940918,
        "Kategorie": "UH",
        "schoolshort": "ETHZ",
        "name": "Unknown Amenity",
        "quarter": "Oberstrass",
        "city": "Zürich",
        "address": "Scheuchzerstrasse, 8006, Zürich",
        "zipcode": "8006"
    },
    {
        "label": "<i>Schul- und Hochschulareal</i> <b>Eidgenössische Technische Hochschule Zürich ETHZ, Standort Zentrum</b> (ZH) - Zürich",
        "lat": 47.38043975830078,
        "lon": 8.547872543334961,
        "Kategorie": "UH",
        "schoolshort": "ETHZ",
        "name": "Unknown Amenity",
        "quarter": "Oberstrass",
        "city": "Zürich",
        "address": "Universitätstrasse, 8006, Zürich",
        "zipcode": "8006"
    },
    {
        "label": "<i>Schul- und Hochschulareal</i> <b>Eidgenössische Technische Hochschule Zürich ETHZ, Standort Zentrum</b> (ZH) - Zürich",
        "lat": 47.37948989868164,
        "lon": 8.543998718261719,
        "Kategorie": "UH",
        "schoolshort": "ETHZ",
        "name": "Unknown Amenity",
        "quarter": "Unterstrass",
        "city": "Zürich",
        "address": "Weinbergstrasse, 8006, Zürich",
        "zipcode": "8006"
    },
    {
        "label": "<i>Schul- und Hochschulareal</i> <b>Eidgenössische Technische Hochschule Zürich ETHZ, Standort Zentrum</b> (ZH) - Zürich",
        "lat": 47.38145446777344,
        "lon": 8.541731834411621,
        "Kategorie": "UH",
        "schoolshort": "ETHZ",
        "name": "Unknown Amenity",
        "quarter": "Unterstrass",
        "city": "Zürich",
        "address": "Stampfenbachstrasse, 8006, Zürich",
        "zipcode": "8006"
    },
    {
        "label": "<i>Schul- und Hochschulareal</i> <b>Eidgenössische Technische Hochschule Zürich ETHZ, Standort Zentrum</b> (ZH) - Zürich",
        "lat": 47.376712799072266,
        "lon": 8.54541015625,
        "Kategorie": "UH",
        "schoolshort": "ETHZ",
        "name": "Unknown Amenity",
        "quarter": "Altstadt",
        "city": "Zürich",
        "address": "Leonhardshalde, 8001, Zürich",
        "zipcode": "8001"
    },
    {
        "label": "<i>Schul- und Hochschulareal</i> <b>Eidgenössische Technische Hochschule Zürich ETHZ, Standort Zentrum</b> (ZH) - Zürich",
        "lat": 47.38014602661133,
        "lon": 8.54495620727539,
        "Kategorie": "UH",
        "schoolshort": "ETHZ",
        "name": "Unknown Amenity",
        "quarter": "Unterstrass",
        "city": "Zürich",
        "address": "Haldeneggsteig, 8092, Zürich",
        "zipcode": "8092"
    },
    {
        "label": "<i>Schul- und Hochschulareal</i> <b>Eidgenössische Technische Hochschule Zürich ETHZ, Standort Balgrist</b> (ZH) - Zürich",
        "lat": 47.35240936279297,
        "lon": 8.574235916137695,
        "Kategorie": "UH",
        "schoolshort": "ETHZ",
        "name": "Balgrist Campus",
        "quarter": "Kreis 8",
        "city": "Zürich",
        "address": "Lengghalde, 8008, Zürich",
        "zipcode": "8008"
    },
    {
        "label": "<i>Schul- und Hochschulareal</i> <b>Eidgenössische Technische Hochschule Zürich ETHZ, Standort Zentrum</b> (ZH) - Zürich",
        "lat": 47.37995910644531,
        "lon": 8.546175956726074,
        "Kategorie": "UH",
        "schoolshort": "ETHZ",
        "name": "Unknown Amenity",
        "quarter": "Oberstrass",
        "city": "Zürich",
        "address": "Sonneggstrasse, 8006, Zürich",
        "zipcode": "8006"
    },
    {
        "label": "<i>Schul- und Hochschulareal</i> <b>Eidgenössische Technische Hochschule Zürich ETHZ, Standort Zentrum</b> (ZH) - Zürich",
        "lat": 47.38059616088867,
        "lon": 8.543022155761719,
        "Kategorie": "UH",
        "schoolshort": "ETHZ",
        "name": "Unknown Amenity",
        "quarter": "Unterstrass",
        "city": "Zürich",
        "address": "Stampfenbachstrasse, 8006, Zürich",
        "zipcode": "8006"
    },
    {
        "label": "<i>Schul- und Hochschulareal</i> <b>Eidgenössische Technische Hochschule Zürich ETHZ, Standort Zentrum</b> (ZH) - Zürich",
        "lat": 47.37770080566406,
        "lon": 8.55301570892334,
        "Kategorie": "UH",
        "schoolshort": "ETHZ",
        "name": "ETH Zürich, Zentrum",
        "quarter": "Altstadt",
        "city": "Zürich",
        "address": "Rämistrasse, 8091, Zürich",
        "zipcode": "8091"
    },
    {
        "label": "<i>Schul- und Hochschulareal</i> <b>Eidgenössische Technische Hochschule Zürich ETHZ, Standort Zentrum</b> (ZH) - Zürich",
        "lat": 47.379276275634766,
        "lon": 8.547886848449707,
        "Kategorie": "UH",
        "schoolshort": "ETHZ",
        "name": "Unknown Amenity",
        "quarter": "Oberstrass",
        "city": "Zürich",
        "address": "Universitätstrasse, 8006, Zürich",
        "zipcode": "8006"
    },
    {
        "label": "<i>Schul- und Hochschulareal</i> <b>Eidgenössische Technische Hochschule Zürich ETHZ, Standort Zentrum</b> (ZH) - Zürich",
        "lat": 47.378883361816406,
        "lon": 8.547911643981934,
        "Kategorie": "UH",
        "schoolshort": "ETHZ",
        "name": "Unknown Amenity",
        "quarter": "Oberstrass",
        "city": "Zürich",
        "address": "Universitätstrasse, 8006, Zürich",
        "zipcode": "8006"
    },
    {
        "label": "<i>Schul- und Hochschulareal</i> <b>Eidgenössische Technische Hochschule Zürich ETHZ, Standort Zentrum</b> (ZH) - Zürich",
        "lat": 47.37794876098633,
        "lon": 8.54406452178955,
        "Kategorie": "UH",
        "schoolshort": "ETHZ",
        "name": "Unknown Amenity",
        "quarter": "Altstadt",
        "city": "Zürich",
        "address": "Weinbergstrasse, 8001, Zürich",
        "zipcode": "8001"
    },
    {
        "label": "<i>Schul- und Hochschulareal</i> <b>Eidgenössische Technische Hochschule Zürich ETHZ, Standort Zentrum</b> (ZH) - Zürich",
        "lat": 47.3809928894043,
        "lon": 8.550870895385742,
        "Kategorie": "UH",
        "schoolshort": "ETHZ",
        "name": "Unknown Amenity",
        "quarter": "Oberstrass",
        "city": "Zürich",
        "address": "Haldenbachstrasse, 8006, Zürich",
        "zipcode": "8006"
    },
    {
        "label": "<i>Schul- und Hochschulareal</i> <b>Eidgenössische Technische Hochschule Zürich ETHZ, Standort Zentrum</b> (ZH) - Zürich",
        "lat": 47.38008117675781,
        "lon": 8.54666805267334,
        "Kategorie": "UH",
        "schoolshort": "ETHZ",
        "name": "Unknown Amenity",
        "quarter": "Oberstrass",
        "city": "Zürich",
        "address": "Sonneggstrasse, 8006, Zürich",
        "zipcode": "8006"
    },
    {
        "label": "<i>Schul- und Hochschulareal</i> <b>Eidgenössische Technische Hochschule Zürich ETHZ, Standort Zentrum</b> (ZH) - Zürich",
        "lat": 47.37827682495117,
        "lon": 8.549254417419434,
        "Kategorie": "UH",
        "schoolshort": "ETHZ",
        "name": "Unknown Amenity",
        "quarter": "Oberstrass",
        "city": "Zürich",
        "address": "Universitätstrasse, 8092, Zürich",
        "zipcode": "8092"
    },
    {
        "label": "<i>Schul- und Hochschulareal</i> <b>Eidgenössische Technische Hochschule Zürich ETHZ, Standort Zentrum</b> (ZH) - Zürich",
        "lat": 47.38209915161133,
        "lon": 8.546432495117188,
        "Kategorie": "UH",
        "schoolshort": "ETHZ",
        "name": "Unknown Amenity",
        "quarter": "Oberstrass",
        "city": "Zürich",
        "address": "Nelkenstrasse, 8006, Zürich",
        "zipcode": "8006"
    },
    {
        "label": "<i><i>Schul Hochschulareal</i></i> <b>Eidgenössische Technische Hochschule ETHZ Hönggerberg</b> (ZH) - Zürich",
        "lat": 47.40850067138672,
        "lon": 8.50771713256836,
        "Kategorie": "UH",
        "schoolshort": "ETHZ",
        "name": "ETH Zürich, Hönggerberg",
        "quarter": "Höngg",
        "city": "Zürich",
        "address": "Laura-Hezner-Weg, 8093, Zürich",
        "zipcode": "8093"
    },
    {
        "label": "<i><i>Schul Hochschulareal</i></i> <b>Eidgenössische Technische Hochschule ETHZ</b> (ZH) - Zürich",
        "lat": 47.376258850097656,
        "lon": 8.547501564025879,
        "Kategorie": "UH",
        "schoolshort": "ETHZ",
        "name": "ETH Zürich, Zentrum",
        "quarter": "Altstadt",
        "city": "Zürich",
        "address": "Rämistrasse, 8091, Zürich",
        "zipcode": "8091"
    },
    {
        "label": "<i><i>Schul Hochschulareal</i></i> <b>Universität</b> (LU) - Luzern",
        "lat": 47.04965591430664,
        "lon": 8.312200546264648,
        "Kategorie": "UH",
        "schoolshort": "UNILU",
        "name": "Unknown Amenity",
        "quarter": "Unknown Quarter",
        "city": "Unknown City",
        "address": "Frohburgstrasse, 6005, ",
        "zipcode": "6005"
    },
    {
        "label": "<i>Schul- und Hochschulareal</i> <b>Universität St. Gallen HSG, Standort Varnbüelstrasse</b> (SG) - St. Gallen",
        "lat": 47.43149185180664,
        "lon": 9.373311042785645,
        "Kategorie": "UH",
        "schoolshort": "HSG",
        "name": "Unknown Amenity",
        "quarter": "Rosenberg",
        "city": "Unknown City",
        "address": "Vadianstrasse, 9000, ",
        "zipcode": "9000"
    },
    {
        "label": "<i>Schul- und Hochschulareal</i> <b>Universität St. Gallen HSG, Standort Bahnhofstrasse</b> (SG) - St. Gallen",
        "lat": 47.425865173339844,
        "lon": 9.37299633026123,
        "Kategorie": "UH",
        "schoolshort": "HSG",
        "name": "Unknown Amenity",
        "quarter": "Rosenberg",
        "city": "Unknown City",
        "address": "Bahnhofstrasse, 9000, ",
        "zipcode": "9000"
    },
    {
        "label": "<i>Schul- und Hochschulareal</i> <b>Universität St. Gallen HSG</b> (SG) - St. Gallen",
        "lat": 47.43788146972656,
        "lon": 9.374914169311523,
        "Kategorie": "UH",
        "schoolshort": "HSG",
        "name": "Unknown Amenity",
        "quarter": "Rotmonten",
        "city": "Unknown City",
        "address": "Holzstrasse, 9010, ",
        "zipcode": "9010"
    },
    {
        "label": "<i>Schul- und Hochschulareal</i> <b>Universität St. Gallen HSG, Standort Tigerbergstrasse</b> (SG) - St. Gallen",
        "lat": 47.42765808105469,
        "lon": 9.374059677124023,
        "Kategorie": "UH",
        "schoolshort": "HSG",
        "name": "Unknown Amenity",
        "quarter": "Rosenberg",
        "city": "Unknown City",
        "address": "Tigerbergstrasse, 9000, ",
        "zipcode": "9000"
    },
    {
        "label": "<i>Schul- und Hochschulareal</i> <b>Universität St. Gallen HSG, Standort Gatterstrasse</b> (SG) - St. Gallen",
        "lat": 47.431861877441406,
        "lon": 9.372994422912598,
        "Kategorie": "UH",
        "schoolshort": "HSG",
        "name": "Universität St.Gallen",
        "quarter": "St. Jakob",
        "city": "Unknown City",
        "address": "Dufourstrasse, 9000, ",
        "zipcode": "9000"
    },
    {
        "label": "<i>Schul- und Hochschulareal</i> <b>Universität St. Gallen HSG</b> (SG) - St. Gallen",
        "lat": 47.43002700805664,
        "lon": 9.372261047363281,
        "Kategorie": "UH",
        "schoolshort": "HSG",
        "name": "Unknown Amenity",
        "quarter": "Rosenberg",
        "city": "Unknown City",
        "address": "Höhenweg, 9001, ",
        "zipcode": "9001"
    },
    {
        "label": "<i>Schul- und Hochschulareal</i> <b>Universität St. Gallen HSG</b> (SG) - St. Gallen",
        "lat": 47.43437576293945,
        "lon": 9.375503540039062,
        "Kategorie": "UH",
        "schoolshort": "HSG",
        "name": "Unknown Amenity",
        "quarter": "Rotmonten",
        "city": "Unknown City",
        "address": "Guisanstrasse, 9010, ",
        "zipcode": "9010"
    },
    {
        "label": "<i>Schul- und Hochschulareal</i> <b>Universität St. Gallen HSG, Standort Müller-Friedbergstrasse</b> (SG) - St. Gallen",
        "lat": 47.42805480957031,
        "lon": 9.375055313110352,
        "Kategorie": "UH",
        "schoolshort": "HSG",
        "name": "Unterer Graben",
        "quarter": "St. Jakob",
        "city": "Unknown City",
        "address": "Müller-Friedberg-Strasse, 9000, ",
        "zipcode": "9000"
    },
    {
        "label": "<i>Schul- und Hochschulareal</i> <b>Universität St. Gallen HSG, Standort Guisanstrasse</b> (SG) - St. Gallen",
        "lat": 47.432315826416016,
        "lon": 9.374073028564453,
        "Kategorie": "UH",
        "schoolshort": "HSG",
        "name": "Unknown Amenity",
        "quarter": "Rotmonten",
        "city": "Unknown City",
        "address": "Guisanstrasse, 9010, ",
        "zipcode": "9010"
    },
    {
        "label": "<i>Schul- und Hochschulareal</i> <b>Universität St. Gallen HSG, Standort Tigerbergstrasse</b> (SG) - St. Gallen",
        "lat": 47.42839431762695,
        "lon": 9.373093605041504,
        "Kategorie": "UH",
        "schoolshort": "HSG",
        "name": "Unknown Amenity",
        "quarter": "Rosenberg",
        "city": "Unknown City",
        "address": "Tigerbergstrasse, 9000, ",
        "zipcode": "9000"
    },
    {
        "label": "<i>Schul- und Hochschulareal</i> <b>Universität St. Gallen HSG, Standort Bodanstrasse</b> (SG) - St. Gallen",
        "lat": 47.430755615234375,
        "lon": 9.373501777648926,
        "Kategorie": "UH",
        "schoolshort": "HSG",
        "name": "Unknown Amenity",
        "quarter": "St. Jakob",
        "city": "Unknown City",
        "address": "Bodanstrasse, 9000, ",
        "zipcode": "9000"
    },
    {
        "label": "<i>Schul- und Hochschulareal</i> <b>Universität St. Gallen HSG, Standort Blumenbergplatz</b> (SG) - St. Gallen",
        "lat": 47.42733383178711,
        "lon": 9.373616218566895,
        "Kategorie": "UH",
        "schoolshort": "HSG",
        "name": "Unknown Amenity",
        "quarter": "Unknown Quarter",
        "city": "Unknown City",
        "address": ", 9000, ",
        "zipcode": "9000"
    },
    {
        "label": "<i>Schul- und Hochschulareal</i> <b>Universität St. Gallen HSG, Standort Bodanstrasse</b> (SG) - St. Gallen",
        "lat": 47.43086242675781,
        "lon": 9.373119354248047,
        "Kategorie": "UH",
        "schoolshort": "HSG",
        "name": "Unknown Amenity",
        "quarter": "St. Jakob",
        "city": "Unknown City",
        "address": "Bodanstrasse, 9000, ",
        "zipcode": "9000"
    },
    {
        "label": "<i>Schul- und Hochschulareal</i> <b>Universität St. Gallen HSG, Standort Tannenstrasse</b> (SG) - St. Gallen",
        "lat": 47.43440628051758,
        "lon": 9.377961158752441,
        "Kategorie": "UH",
        "schoolshort": "HSG",
        "name": "Unknown Amenity",
        "quarter": "Rotmonten",
        "city": "Unknown City",
        "address": "Girtannerstrasse, 9010, ",
        "zipcode": "9010"
    },
    {
        "label": "<i>Schul- und Hochschulareal</i> <b>Universität St. Gallen HSG, Standort St. Jakob-Strasse</b> (SG) - St. Gallen",
        "lat": 47.42917251586914,
        "lon": 9.378214836120605,
        "Kategorie": "UH",
        "schoolshort": "HSG",
        "name": "Unknown Amenity",
        "quarter": "St. Jakob",
        "city": "Unknown City",
        "address": "St. Jakob-Strasse, 9000, ",
        "zipcode": "9000"
    },
    {
        "label": "<i>Schul- und Hochschulareal</i> <b>Universität St. Gallen HSG, Standort Rosenbergstrasse</b> (SG) - St. Gallen",
        "lat": 47.42345428466797,
        "lon": 9.368531227111816,
        "Kategorie": "UH",
        "schoolshort": "HSG",
        "name": "Unknown Amenity",
        "quarter": "Rosenberg",
        "city": "Unknown City",
        "address": "Rosenbergstrasse, 9000, ",
        "zipcode": "9000"
    },
    {
        "label": "<i>Schul- und Hochschulareal</i> <b>Universität St. Gallen HSG, Standort Tellstrasse</b> (SG) - St. Gallen",
        "lat": 47.42557907104492,
        "lon": 9.371038436889648,
        "Kategorie": "UH",
        "schoolshort": "HSG",
        "name": "Unknown Amenity",
        "quarter": "Rosenberg",
        "city": "Unknown City",
        "address": "Tellstrasse, 9000, ",
        "zipcode": "9000"
    },
    {
        "label": "<i>Schul- und Hochschulareal</i> <b>Universität St. Gallen HSG, Standort Tigerstrasse</b> (SG) - St. Gallen",
        "lat": 47.42780303955078,
        "lon": 9.372838020324707,
        "Kategorie": "UH",
        "schoolshort": "HSG",
        "name": "Unknown Amenity",
        "quarter": "Rosenberg",
        "city": "Unknown City",
        "address": "Tigerbergstrasse, 9000, ",
        "zipcode": "9000"
    },
    {
        "label": "<i>Schul- und Hochschulareal</i> <b>Universität St. Gallen HSG, Standort Rosenbergstrasse</b> (SG) - St. Gallen",
        "lat": 47.42509460449219,
        "lon": 9.37092113494873,
        "Kategorie": "UH",
        "schoolshort": "HSG",
        "name": "Unknown Amenity",
        "quarter": "Rosenberg",
        "city": "Unknown City",
        "address": "Rosenbergstrasse, 9000, ",
        "zipcode": "9000"
    },
    {
        "label": "<i>Schul- und Hochschulareal</i> <b>Universität St. Gallen HSG, Standort Guisanstrasse</b> (SG) - St. Gallen",
        "lat": 47.43201446533203,
        "lon": 9.373377799987793,
        "Kategorie": "UH",
        "schoolshort": "HSG",
        "name": "Unknown Amenity",
        "quarter": "Rotmonten",
        "city": "Unknown City",
        "address": "Guisanstrasse, 9010, ",
        "zipcode": "9010"
    },
    {
        "label": "<i><i>Schul Hochschulareal</i></i> <b>Universität HSG</b> (SG) - St. Gallen",
        "lat": 47.43150329589844,
        "lon": 9.375113487243652,
        "Kategorie": "UH",
        "schoolshort": "HSG",
        "name": "Universität St.Gallen",
        "quarter": "St. Jakob",
        "city": "Unknown City",
        "address": "Dufourstrasse, 9000, ",
        "zipcode": "9000"
    },
    {
        "label": "<i>Schul- und Hochschulareal</i> <b>Université de Neuchâtel, Faculté des lettres et sciences humaines</b> (NE) - Lac de Neuchâtel (NE),Neuchâtel,Hauterive (NE)",
        "lat": 47.00691223144531,
        "lon": 6.971007823944092,
        "Kategorie": "UH",
        "schoolshort": "UNINE",
        "name": "Unknown Amenity",
        "quarter": "Unknown Quarter",
        "city": "Unknown City",
        "address": ", 2068, ",
        "zipcode": "2068"
    },
    {
        "label": "<i>Schul- und Hochschulareal</i> <b>Université de Neuchâtel, Centre international d'étude du sport</b> (NE) - Neuchâtel",
        "lat": 46.99394989013672,
        "lon": 6.933488368988037,
        "Kategorie": "UH",
        "schoolshort": "UNINE",
        "name": "Hôtel DuPeyrou",
        "quarter": "Unknown Quarter",
        "city": "Unknown City",
        "address": "Avenue DuPeyrou, 2000, ",
        "zipcode": "2000"
    },
    {
        "label": "<i>Schul- und Hochschulareal</i> <b>Université de Neuchâtel, Institut des sciences du langage et de la communication</b> (NE) - Neuchâtel",
        "lat": 46.995140075683594,
        "lon": 6.941305160522461,
        "Kategorie": "UH",
        "schoolshort": "UNINE",
        "name": "Unknown Amenity",
        "quarter": "Unknown Quarter",
        "city": "Unknown City",
        "address": "Rue de la Pierre-à-Mazel, 2002, ",
        "zipcode": "2002"
    },
    {
        "label": "<i>Schul- und Hochschulareal</i> <b>Université de Neuchâtel, Faculté des lettres et sciences humaines, Institut d'ethnologie</b> (NE) - Neuchâtel",
        "lat": 46.99052429199219,
        "lon": 6.920483589172363,
        "Kategorie": "UH",
        "schoolshort": "UNINE",
        "name": "Bibliothèque de l'institut d'ethnologie et musée d'ethnographie",
        "quarter": "Unknown Quarter",
        "city": "Unknown City",
        "address": "Rue de Saint-Nicolas, 2000, ",
        "zipcode": "2000"
    },
    {
        "label": "<i>Schul- und Hochschulareal</i> <b>Université de Neuchâtel, Faculté des sciences, Institut de biologie</b> (NE) - Neuchâtel",
        "lat": 47.00001907348633,
        "lon": 6.935677528381348,
        "Kategorie": "UH",
        "schoolshort": "UNINE",
        "name": "Unknown Amenity",
        "quarter": "Unknown Quarter",
        "city": "Unknown City",
        "address": "Chemin du Pertuis-du-Sault, 2000, ",
        "zipcode": "2000"
    },
    {
        "label": "<i>Schul- und Hochschulareal</i> <b>Université de Neuchâtel, Rectorat</b> (NE) - Neuchâtel",
        "lat": 46.99476623535156,
        "lon": 6.935635566711426,
        "Kategorie": "UH",
        "schoolshort": "UNINE",
        "name": "Unknown Amenity",
        "quarter": "Unknown Quarter",
        "city": "Unknown City",
        "address": "Faubourg de l'Hôpital, 2002, ",
        "zipcode": "2002"
    },
    {
        "label": "<i>Schul- und Hochschulareal</i> <b>Université de Neuchâtel, Faculté des sciences économiques</b> (NE) - Neuchâtel",
        "lat": 46.99376678466797,
        "lon": 6.9404988288879395,
        "Kategorie": "UH",
        "schoolshort": "UNINE",
        "name": "UniNE Faculté des sciences économiques",
        "quarter": "Unknown Quarter",
        "city": "Unknown City",
        "address": "Rue Abram-Louis-Breguet, 2002, ",
        "zipcode": "2002"
    },
    {
        "label": "<i>Schul- und Hochschulareal</i> <b>Université de Neuchâtel, Faculté des lettres et sciences humaines</b> (NE) - Neuchâtel",
        "lat": 46.99392318725586,
        "lon": 6.934484958648682,
        "Kategorie": "UH",
        "schoolshort": "UNINE",
        "name": "Unknown Amenity",
        "quarter": "Unknown Quarter",
        "city": "Unknown City",
        "address": "Faubourg de l'Hôpital, 2002, ",
        "zipcode": "2002"
    },
    {
        "label": "<i>Schul- und Hochschulareal</i> <b>Université de Neuchâtel, Faculté des lettres et sciences humaines</b> (NE) - Neuchâtel",
        "lat": 46.993499755859375,
        "lon": 6.942226409912109,
        "Kategorie": "UH",
        "schoolshort": "UNINE",
        "name": "UniNE Faculté des lettres et Sciences humaines",
        "quarter": "Unknown Quarter",
        "city": "Unknown City",
        "address": "Quai Robert-Comtesse, 2002, ",
        "zipcode": "2002"
    },
    {
        "label": "<i>Schul- und Hochschulareal</i> <b>Université de Neuchâtel, Faculté des lettres et sciences humaines, ILCF</b> (NE) - Neuchâtel",
        "lat": 46.994903564453125,
        "lon": 6.937748432159424,
        "Kategorie": "UH",
        "schoolshort": "UNINE",
        "name": "Unknown Amenity",
        "quarter": "Unknown Quarter",
        "city": "Unknown City",
        "address": "Faubourg de l'Hôpital, 2000, ",
        "zipcode": "2000"
    },
    {
        "label": "<i>Schul- und Hochschulareal</i> <b>Universität Bern</b> (BE) - Bern",
        "lat": 46.95702362060547,
        "lon": 7.445335865020752,
        "Kategorie": "UH",
        "schoolshort": "UNIBE",
        "name": "Unknown Amenity",
        "quarter": "Unknown Quarter",
        "city": "Bern",
        "address": "Hofweg, 3013, Bern",
        "zipcode": "3013"
    },
    {
        "label": "<i>Schul- und Hochschulareal</i> <b>Universität Bern</b> (BE) - Bern",
        "lat": 46.95195770263672,
        "lon": 7.438076496124268,
        "Kategorie": "UH",
        "schoolshort": "UNIBE",
        "name": "Universität Bern",
        "quarter": "Unknown Quarter",
        "city": "Bern",
        "address": "Kleine Westtangente, 3012, Bern",
        "zipcode": "3012"
    },
    {
        "label": "<i>Schul- und Hochschulareal</i> <b>Universität Bern</b> (BE) - Bern",
        "lat": 46.949703216552734,
        "lon": 7.425671100616455,
        "Kategorie": "UH",
        "schoolshort": "UNIBE",
        "name": "Unknown Amenity",
        "quarter": "Unknown Quarter",
        "city": "Bern",
        "address": "Murtenstrasse, 3008, Bern",
        "zipcode": "3008"
    },
    {
        "label": "<i>Schul- und Hochschulareal</i> <b>Universität Bern</b> (BE) - Bern",
        "lat": 46.951236724853516,
        "lon": 7.433267593383789,
        "Kategorie": "UH",
        "schoolshort": "UNIBE",
        "name": "Universität Bern",
        "quarter": "Unknown Quarter",
        "city": "Bern",
        "address": "Donnerbühlweg, 3012, Bern",
        "zipcode": "3012"
    },
    {
        "label": "<i>Schul- und Hochschulareal</i> <b>Universität Bern</b> (BE) - Bern",
        "lat": 46.954612731933594,
        "lon": 7.434881210327148,
        "Kategorie": "UH",
        "schoolshort": "UNIBE",
        "name": "Bibliothek Länggasse",
        "quarter": "Unknown Quarter",
        "city": "Bern",
        "address": "Vereinsweg, 3012, Bern",
        "zipcode": "3012"
    },
    {
        "label": "<i>Schul- und Hochschulareal</i> <b>Universität Bern</b> (BE) - Bern",
        "lat": 46.94995880126953,
        "lon": 7.435436725616455,
        "Kategorie": "UH",
        "schoolshort": "UNIBE",
        "name": "Universität Bern - UniS",
        "quarter": "Unknown Quarter",
        "city": "Bern",
        "address": "Hochschulstrasse, 3012, Bern",
        "zipcode": "3012"
    },
    {
        "label": "<i>Schul- und Hochschulareal</i> <b>Universität Bern</b> (BE) - Bern",
        "lat": 46.9528694152832,
        "lon": 7.445035457611084,
        "Kategorie": "UH",
        "schoolshort": "UNIBE",
        "name": "Unknown Amenity",
        "quarter": "Unknown Quarter",
        "city": "Bern",
        "address": "Altenbergrain, 3013, Bern",
        "zipcode": "3013"
    },
    {
        "label": "<i>Schul- und Hochschulareal</i> <b>Universität Bern</b> (BE) - Bern",
        "lat": 46.95027542114258,
        "lon": 7.436910629272461,
        "Kategorie": "UH",
        "schoolshort": "UNIBE",
        "name": "Universität Bern",
        "quarter": "Unknown Quarter",
        "city": "Bern",
        "address": "Kleine Westtangente, 3012, Bern",
        "zipcode": "3012"
    },
    {
        "label": "<i>Schul- und Hochschulareal</i> <b>Universität Bern</b> (BE) - Bern",
        "lat": 46.9529914855957,
        "lon": 7.422307968139648,
        "Kategorie": "UH",
        "schoolshort": "UNIBE",
        "name": "Standort Hochschulzentrum vonRoll",
        "quarter": "Unknown Quarter",
        "city": "Bern",
        "address": "Murtenstrasse, 3008, Bern",
        "zipcode": "3008"
    },
    {
        "label": "<i>Schul- und Hochschulareal</i> <b>Universität Bern</b> (BE) - Bern",
        "lat": 46.952247619628906,
        "lon": 7.434854984283447,
        "Kategorie": "UH",
        "schoolshort": "UNIBE",
        "name": "Unknown Amenity",
        "quarter": "Unknown Quarter",
        "city": "Bern",
        "address": "Hallerstrasse, 3012, Bern",
        "zipcode": "3012"
    },
    {
        "label": "<i>Schul- und Hochschulareal</i> <b>Universität Bern</b> (BE) - Bern",
        "lat": 46.95120620727539,
        "lon": 7.435779571533203,
        "Kategorie": "UH",
        "schoolshort": "UNIBE",
        "name": "Universität Bern",
        "quarter": "Unknown Quarter",
        "city": "Bern",
        "address": "Falkenplatz, 3012, Bern",
        "zipcode": "3012"
    },
    {
        "label": "<i>Schul- und Hochschulareal</i> <b>Universität Bern</b> (BE) - Bern",
        "lat": 46.952903747558594,
        "lon": 7.435100555419922,
        "Kategorie": "UH",
        "schoolshort": "UNIBE",
        "name": "Geographisches Institut",
        "quarter": "Unknown Quarter",
        "city": "Bern",
        "address": "Hallerstrasse, 3012, Bern",
        "zipcode": "3012"
    },
    {
        "label": "<i>Schul- und Hochschulareal</i> <b>Universität Bern</b> (BE) - Bern",
        "lat": 46.95127868652344,
        "lon": 7.43880558013916,
        "Kategorie": "UH",
        "schoolshort": "UNIBE",
        "name": "Institute Exakte Wissenschaften",
        "quarter": "Unknown Quarter",
        "city": "Bern",
        "address": "Sidlerstrasse, 3012, Bern",
        "zipcode": "3012"
    },
    {
        "label": "<i>Schul- und Hochschulareal</i> <b>Universität Bern</b> (BE) - Bern",
        "lat": 46.95121765136719,
        "lon": 7.437584400177002,
        "Kategorie": "UH",
        "schoolshort": "UNIBE",
        "name": "Dr. med. Andreas Wegmüller",
        "quarter": "Unknown Quarter",
        "city": "Bern",
        "address": "Sidlerstrasse, 3012, Bern",
        "zipcode": "3012"
    },
    {
        "label": "<i>Schul- und Hochschulareal</i> <b>Universität Bern</b> (BE) - Bern",
        "lat": 46.95392990112305,
        "lon": 7.429872512817383,
        "Kategorie": "UH",
        "schoolshort": "UNIBE",
        "name": "Unknown Amenity",
        "quarter": "Unknown Quarter",
        "city": "Bern",
        "address": "Platanenhof, 3012, Bern",
        "zipcode": "3012"
    },
    {
        "label": "<i>Schul- und Hochschulareal</i> <b>Universität Bern</b> (BE) - Bern",
        "lat": 46.946834564208984,
        "lon": 7.432474136352539,
        "Kategorie": "UH",
        "schoolshort": "UNIBE",
        "name": "Haus der Universität",
        "quarter": "Unknown Quarter",
        "city": "Bern",
        "address": "Schlösslistrasse, 3008, Bern",
        "zipcode": "3008"
    },
    {
        "label": "<i>Schul- und Hochschulareal</i> <b>Universität Bern, Standort Sulgenauweg</b> (BE) - Bern",
        "lat": 46.93843078613281,
        "lon": 7.437802314758301,
        "Kategorie": "UH",
        "schoolshort": "UNIBE",
        "name": "Unknown Amenity",
        "quarter": "Unknown Quarter",
        "city": "Bern",
        "address": "Wabernstrasse, 3007, Bern",
        "zipcode": "3007"
    },
    {
        "label": "<i>Schul- und Hochschulareal</i> <b>Universität Bern</b> (BE) - Bern",
        "lat": 46.961734771728516,
        "lon": 7.432301044464111,
        "Kategorie": "UH",
        "schoolshort": "UNIBE",
        "name": "Unknown Amenity",
        "quarter": "Unknown Quarter",
        "city": "Bern",
        "address": "Neubrückstrasse, 3012, Bern",
        "zipcode": "3012"
    },
    {
        "label": "<i>Schul- und Hochschulareal</i> <b>Universität Bern</b> (BE) - Bern",
        "lat": 46.946197509765625,
        "lon": 7.42382287979126,
        "Kategorie": "UH",
        "schoolshort": "UNIBE",
        "name": "Inselspital",
        "quarter": "Unknown Quarter",
        "city": "Bern",
        "address": "Freiburgstrasse, 3010, Bern",
        "zipcode": "3010"
    },
    {
        "label": "<i>Schul- und Hochschulareal</i> <b>Universität Bern</b> (BE) - Bern",
        "lat": 46.947776794433594,
        "lon": 7.423946380615234,
        "Kategorie": "UH",
        "schoolshort": "UNIBE",
        "name": "Inselspital",
        "quarter": "Unknown Quarter",
        "city": "Bern",
        "address": "Freiburgstrasse, 3010, Bern",
        "zipcode": "3010"
    },
    {
        "label": "<i>Schul- und Hochschulareal</i> <b>Universität Bern</b> (BE) - Bern",
        "lat": 46.9503059387207,
        "lon": 7.424631118774414,
        "Kategorie": "UH",
        "schoolshort": "UNIBE",
        "name": "Unknown Amenity",
        "quarter": "Unknown Quarter",
        "city": "Bern",
        "address": "Murtenstrasse, 3008, Bern",
        "zipcode": "3008"
    },
    {
        "label": "<i>Schul- und Hochschulareal</i> <b>Universität Bern</b> (BE) - Bern",
        "lat": 46.94727325439453,
        "lon": 7.448678970336914,
        "Kategorie": "UH",
        "schoolshort": "UNIBE",
        "name": "Unknown Amenity",
        "quarter": "Unknown Quarter",
        "city": "Bern",
        "address": "Herrengasse, 3011, Bern",
        "zipcode": "3011"
    },
    {
        "label": "<i>Schul- und Hochschulareal</i> <b>Universität Bern</b> (BE) - Bern",
        "lat": 46.95421600341797,
        "lon": 7.4333977699279785,
        "Kategorie": "UH",
        "schoolshort": "UNIBE",
        "name": "Il Ristorantino",
        "quarter": "Unknown Quarter",
        "city": "Bern",
        "address": "Gesellschaftsstrasse, 3012, Bern",
        "zipcode": "3012"
    },
    {
        "label": "<i>Schul- und Hochschulareal</i> <b>Universität Bern</b> (BE) - Bern",
        "lat": 46.95137023925781,
        "lon": 7.43186616897583,
        "Kategorie": "UH",
        "schoolshort": "UNIBE",
        "name": "Unknown Amenity",
        "quarter": "Unknown Quarter",
        "city": "Bern",
        "address": "Donnerbühlweg, 3012, Bern",
        "zipcode": "3012"
    },
    {
        "label": "<i>Schul- und Hochschulareal</i> <b>Universität Bern</b> (BE) - Bern",
        "lat": 46.951725006103516,
        "lon": 7.4353437423706055,
        "Kategorie": "UH",
        "schoolshort": "UNIBE",
        "name": "Unknown Amenity",
        "quarter": "Unknown Quarter",
        "city": "Bern",
        "address": "Hallerstrasse, 3012, Bern",
        "zipcode": "3012"
    },
    {
        "label": "<i>Schul- und Hochschulareal</i> <b>Universität Bern</b> (BE) - Bern",
        "lat": 46.93157958984375,
        "lon": 7.434787273406982,
        "Kategorie": "UH",
        "schoolshort": "UNIBE",
        "name": "Unknown Amenity",
        "quarter": "Unknown Quarter",
        "city": "Bern",
        "address": "Morillonstrasse, 3007, Bern",
        "zipcode": "3007"
    },
    {
        "label": "<i>Schul- und Hochschulareal</i> <b>Universität Bern</b> (BE) - Bern",
        "lat": 46.957008361816406,
        "lon": 7.426163196563721,
        "Kategorie": "UH",
        "schoolshort": "UNIBE",
        "name": "Unknown Amenity",
        "quarter": "Unknown Quarter",
        "city": "Bern",
        "address": "Bremgartenstrasse, 3012, Bern",
        "zipcode": "3012"
    },
    {
        "label": "<i>Schul- und Hochschulareal</i> <b>Universität Bern</b> (BE) - Bern",
        "lat": 46.954017639160156,
        "lon": 7.438455104827881,
        "Kategorie": "UH",
        "schoolshort": "UNIBE",
        "name": "Universität Bern",
        "quarter": "Unknown Quarter",
        "city": "Bern",
        "address": "Alpeneggstrasse, 3012, Bern",
        "zipcode": "3012"
    },
    {
        "label": "<i>Schul- und Hochschulareal</i> <b>Universität Bern</b> (BE) - Bern",
        "lat": 46.95554733276367,
        "lon": 7.435734272003174,
        "Kategorie": "UH",
        "schoolshort": "UNIBE",
        "name": "Bibliothek Mittelstrasse",
        "quarter": "Unknown Quarter",
        "city": "Bern",
        "address": "Mittelstrasse, 3012, Bern",
        "zipcode": "3012"
    },
    {
        "label": "<i>Schul- und Hochschulareal</i> <b>Universität Bern</b> (BE) - Bern",
        "lat": 46.95376968383789,
        "lon": 7.4401936531066895,
        "Kategorie": "UH",
        "schoolshort": "UNIBE",
        "name": "Uni Engehalde",
        "quarter": "Unknown Quarter",
        "city": "Bern",
        "address": "Schützenmattstrasse, 3012, Bern",
        "zipcode": "3012"
    },
    {
        "label": "<i>Schul- und Hochschulareal</i> <b>Universität Bern, Ethologische Station Hasli</b> (BE) - Bern",
        "lat": 46.96726608276367,
        "lon": 7.3983588218688965,
        "Kategorie": "UH",
        "schoolshort": "UNIBE",
        "name": "Ethologische Station Hasli",
        "quarter": "Unknown Quarter",
        "city": "Bern",
        "address": "Wohlenstrasse, 3032, Bern",
        "zipcode": "3032"
    },
    {
        "label": "<i>Schul- und Hochschulareal</i> <b>Haus der Universität</b> (BE) - Bern",
        "lat": 46.946834564208984,
        "lon": 7.432474136352539,
        "Kategorie": "UH",
        "schoolshort": "UNIBE",
        "name": "Haus der Universität",
        "quarter": "Unknown Quarter",
        "city": "Bern",
        "address": "Schlösslistrasse, 3008, Bern",
        "zipcode": "3008"
    },
    {
        "label": "<i>Schul- und Hochschulareal</i> <b>Universität Zürich UZH</b> (ZH) - Zürich",
        "lat": 47.374244689941406,
        "lon": 8.546889305114746,
        "Kategorie": "UH",
        "schoolshort": "UZH",
        "name": "Unknown Amenity",
        "quarter": "Altstadt",
        "city": "Zürich",
        "address": "Hirschengraben, 8001, Zürich",
        "zipcode": "8001"
    },
    {
        "label": "<i>Schul- und Hochschulareal</i> <b>Universität Zürich UZH, Standort Zentrum</b> (ZH) - Zürich",
        "lat": 47.372623443603516,
        "lon": 8.551169395446777,
        "Kategorie": "UH",
        "schoolshort": "UZH",
        "name": "Asien-Orient-Institut",
        "quarter": "Fluntern",
        "city": "Zürich",
        "address": "Zürichbergstrasse, 8091, Zürich",
        "zipcode": "8091"
    },
    {
        "label": "<i>Schul- und Hochschulareal</i> <b>Universität Zürich UZH</b> (ZH) - Zürich",
        "lat": 47.38829040527344,
        "lon": 8.54704475402832,
        "Kategorie": "UH",
        "schoolshort": "UZH",
        "name": "Unknown Amenity",
        "quarter": "Oberstrass",
        "city": "Zürich",
        "address": "Winterthurerstrasse, 8006, Zürich",
        "zipcode": "8006"
    },
    {
        "label": "<i>Schul- und Hochschulareal</i> <b>Universität Zürich UZH</b> (ZH) - Zürich",
        "lat": 47.37460708618164,
        "lon": 8.556620597839355,
        "Kategorie": "UH",
        "schoolshort": "UZH",
        "name": "Unknown Amenity",
        "quarter": "Fluntern",
        "city": "Zürich",
        "address": "Zürichbergstrasse, 8044, Zürich",
        "zipcode": "8044"
    },
    {
        "label": "<i>Schul- und Hochschulareal</i> <b>Universität Zürich UZH</b> (ZH) - Zürich",
        "lat": 47.37213134765625,
        "lon": 8.55761432647705,
        "Kategorie": "UH",
        "schoolshort": "UZH",
        "name": "Kinderspital Zürich",
        "quarter": "Hottingen",
        "city": "Zürich",
        "address": "Steinwiesstrasse, 8032, Zürich",
        "zipcode": "8032"
    },
    {
        "label": "<i>Schul- und Hochschulareal</i> <b>Universität Zürich UZH</b> (ZH) - Zürich",
        "lat": 47.38287353515625,
        "lon": 8.548418045043945,
        "Kategorie": "UH",
        "schoolshort": "UZH",
        "name": "Unknown Amenity",
        "quarter": "Oberstrass",
        "city": "Zürich",
        "address": "Universitätstrasse, 8006, Zürich",
        "zipcode": "8006"
    },
    {
        "label": "<i>Schul- und Hochschulareal</i> <b>Universität Zürich UZH</b> (ZH) - Zürich",
        "lat": 47.37276840209961,
        "lon": 8.555442810058594,
        "Kategorie": "UH",
        "schoolshort": "UZH",
        "name": "Unknown Amenity",
        "quarter": "Fluntern",
        "city": "Zürich",
        "address": "Pestalozzistrasse, 8032, Zürich",
        "zipcode": "8032"
    },
    {
        "label": "<i>Schul- und Hochschulareal</i> <b>Universität Zürich UZH, Zentralbibliothek</b> (ZH) - Zürich",
        "lat": 47.37422180175781,
        "lon": 8.545448303222656,
        "Kategorie": "UH",
        "schoolshort": "UZH",
        "name": "Unknown Amenity",
        "quarter": "Altstadt",
        "city": "Zürich",
        "address": "Chorgasse, 8001, Zürich",
        "zipcode": "8001"
    },
    {
        "label": "<i>Schul- und Hochschulareal</i> <b>Universität Zürich UZH</b> (ZH) - Zürich",
        "lat": 47.3701286315918,
        "lon": 8.544435501098633,
        "Kategorie": "UH",
        "schoolshort": "UZH",
        "name": "Universität Zürich Theologische Fakultät",
        "quarter": "Altstadt",
        "city": "Zürich",
        "address": "Kirchgasse, 8024, Zürich",
        "zipcode": "8024"
    },
    {
        "label": "<i>Schul- und Hochschulareal</i> <b>Universität Zürich UZH</b> (ZH) - Zürich",
        "lat": 47.37295913696289,
        "lon": 8.54778003692627,
        "Kategorie": "UH",
        "schoolshort": "UZH",
        "name": "Universität Zürich (UZH), Zentrum",
        "quarter": "Altstadt",
        "city": "Zürich",
        "address": "Rämistrasse, 8091, Zürich",
        "zipcode": "8091"
    },
    {
        "label": "<i>Schul- und Hochschulareal</i> <b>Universität Zürich UZH</b> (ZH) - Zürich",
        "lat": 47.370933532714844,
        "lon": 8.554065704345703,
        "Kategorie": "UH",
        "schoolshort": "UZH",
        "name": "Institut für Erziehungswissenschaft",
        "quarter": "Hottingen",
        "city": "Zürich",
        "address": "Freiestrasse, 8091, Zürich",
        "zipcode": "8091"
    },
    {
        "label": "<i>Schul- und Hochschulareal</i> <b>Universität Zürich UZH, Standort Oerlikon</b> (ZH) - Zürich",
        "lat": 47.414546966552734,
        "lon": 8.549342155456543,
        "Kategorie": "UH",
        "schoolshort": "UZH",
        "name": "Unknown Amenity",
        "quarter": "Seebach",
        "city": "Zürich",
        "address": "Binzmühlestrasse, 8050, Zürich",
        "zipcode": "8050"
    },
    {
        "label": "<i>Schul- und Hochschulareal</i> <b>Universität Zürich UZH, Standort Zentrum</b> (ZH) - Zürich",
        "lat": 47.37364959716797,
        "lon": 8.553226470947266,
        "Kategorie": "UH",
        "schoolshort": "UZH",
        "name": "Unknown Amenity",
        "quarter": "Fluntern",
        "city": "Zürich",
        "address": "Plattenstrasse, 8091, Zürich",
        "zipcode": "8091"
    },
    {
        "label": "<i>Schul- und Hochschulareal</i> <b>Universität Zürich UZH</b> (ZH) - Zürich",
        "lat": 47.383941650390625,
        "lon": 8.5414457321167,
        "Kategorie": "UH",
        "schoolshort": "UZH",
        "name": "Unknown Amenity",
        "quarter": "Unterstrass",
        "city": "Zürich",
        "address": "Waltersbachstrasse, 8006, Zürich",
        "zipcode": "8006"
    },
    {
        "label": "<i>Schul- und Hochschulareal</i> <b>Universität Zürich UZH</b> (ZH) - Zürich",
        "lat": 47.3808708190918,
        "lon": 8.535785675048828,
        "Kategorie": "UH",
        "schoolshort": "UZH",
        "name": "Unknown Amenity",
        "quarter": "Industriequartier",
        "city": "Zürich",
        "address": "Konradstrasse, 8005, Zürich",
        "zipcode": "8005"
    },
    {
        "label": "<i>Schul- und Hochschulareal</i> <b>Universität Zürich UZH</b> (ZH) - Zürich",
        "lat": 47.3722038269043,
        "lon": 8.548346519470215,
        "Kategorie": "UH",
        "schoolshort": "UZH",
        "name": "Unknown Amenity",
        "quarter": "Altstadt",
        "city": "Zürich",
        "address": "Florhofgasse, 8001, Zürich",
        "zipcode": "8001"
    },
    {
        "label": "<i>Schul- und Hochschulareal</i> <b>Universität Zürich UZH</b> (ZH) - Zürich",
        "lat": 47.39143371582031,
        "lon": 8.54554557800293,
        "Kategorie": "UH",
        "schoolshort": "UZH",
        "name": "Unknown Amenity",
        "quarter": "Oberstrass",
        "city": "Zürich",
        "address": "Winterthurerstrasse, 8006, Zürich",
        "zipcode": "8006"
    },
    {
        "label": "<i>Schul- und Hochschulareal</i> <b>Universität Zürich UZH</b> (ZH) - Zürich",
        "lat": 47.37544250488281,
        "lon": 8.545145988464355,
        "Kategorie": "UH",
        "schoolshort": "UZH",
        "name": "Unknown Amenity",
        "quarter": "Altstadt",
        "city": "Zürich",
        "address": "Seilergraben, 8001, Zürich",
        "zipcode": "8001"
    },
    {
        "label": "<i>Schul- und Hochschulareal</i> <b>Universität Zürich UZH</b> (ZH) - Zürich",
        "lat": 47.371219635009766,
        "lon": 8.56506633758545,
        "Kategorie": "UH",
        "schoolshort": "UZH",
        "name": "Unknown Amenity",
        "quarter": "Hottingen",
        "city": "Zürich",
        "address": "Hauserstrasse, 8032, Zürich",
        "zipcode": "8032"
    },
    {
        "label": "<i>Schul- und Hochschulareal</i> <b>Universität Zürich UZH</b> (ZH) - Zürich",
        "lat": 47.376094818115234,
        "lon": 8.54553508758545,
        "Kategorie": "UH",
        "schoolshort": "UZH",
        "name": "Unknown Amenity",
        "quarter": "Altstadt",
        "city": "Zürich",
        "address": "Hirschengraben, 8001, Zürich",
        "zipcode": "8001"
    },
    {
        "label": "<i>Schul- und Hochschulareal</i> <b>Universität Zürich UZH</b> (ZH) - Zürich",
        "lat": 47.37105941772461,
        "lon": 8.533811569213867,
        "Kategorie": "UH",
        "schoolshort": "UZH",
        "name": "Unknown Amenity",
        "quarter": "Altstadt",
        "city": "Zürich",
        "address": "Talstrasse, 8022, Zürich",
        "zipcode": "8022"
    },
    {
        "label": "<i>Schul- und Hochschulareal</i> <b>Universität Zürich UZH</b> (ZH) - Zürich",
        "lat": 47.37137222290039,
        "lon": 8.548492431640625,
        "Kategorie": "UH",
        "schoolshort": "UZH",
        "name": "Institut für Erziehungswissenschaft",
        "quarter": "Altstadt",
        "city": "Zürich",
        "address": "Kantonsschulstrasse, 8001, Zürich",
        "zipcode": "8001"
    },
    {
        "label": "<i>Schul- und Hochschulareal</i> <b>Universität Zürich UZH</b> (ZH) - Zürich",
        "lat": 47.36590576171875,
        "lon": 8.55705738067627,
        "Kategorie": "UH",
        "schoolshort": "UZH",
        "name": "Unknown Amenity",
        "quarter": "Hottingen",
        "city": "Zürich",
        "address": "Neptunstrasse, 8032, Zürich",
        "zipcode": "8032"
    },
    {
        "label": "<i>Schul- und Hochschulareal</i> <b>Universität Zürich UZH</b> (ZH) - Zürich",
        "lat": 47.370216369628906,
        "lon": 8.55782413482666,
        "Kategorie": "UH",
        "schoolshort": "UZH",
        "name": "Elreko Sicherheitskontrollen GmbH; Kowner Jakob AG",
        "quarter": "Hottingen",
        "city": "Zürich",
        "address": "Treichlerstrasse, 8032, Zürich",
        "zipcode": "8032"
    },
    {
        "label": "<i>Schul- und Hochschulareal</i> <b>Universität Zürich UZH</b> (ZH) - Zürich",
        "lat": 47.374542236328125,
        "lon": 8.545072555541992,
        "Kategorie": "UH",
        "schoolshort": "UZH",
        "name": "Unknown Amenity",
        "quarter": "Altstadt",
        "city": "Zürich",
        "address": "Mühlegasse, 8001, Zürich",
        "zipcode": "8001"
    },
    {
        "label": "<i>Schul- und Hochschulareal</i> <b>Universität Zürich UZH</b> (ZH) - Zürich",
        "lat": 47.38735580444336,
        "lon": 8.547918319702148,
        "Kategorie": "UH",
        "schoolshort": "UZH",
        "name": "Unknown Amenity",
        "quarter": "Oberstrass",
        "city": "Zürich",
        "address": "Blümlisalpstrasse, 8006, Zürich",
        "zipcode": "8006"
    },
    {
        "label": "<i>Schul- und Hochschulareal</i> <b>Universität Zürich UZH</b> (ZH) - Zürich",
        "lat": 47.35342788696289,
        "lon": 8.575040817260742,
        "Kategorie": "UH",
        "schoolshort": "UZH",
        "name": "Unknown Amenity",
        "quarter": "Kreis 8",
        "city": "Zürich",
        "address": "Forchstrasse, 8008, Zürich",
        "zipcode": "8008"
    },
    {
        "label": "<i>Schul- und Hochschulareal</i> <b>Universität Zürich UZH</b> (ZH) - Zürich",
        "lat": 47.37471008300781,
        "lon": 8.547104835510254,
        "Kategorie": "UH",
        "schoolshort": "UZH",
        "name": "Unknown Amenity",
        "quarter": "Altstadt",
        "city": "Zürich",
        "address": "Künstlergasse, 8001, Zürich",
        "zipcode": "8001"
    },
    {
        "label": "<i>Schul- und Hochschulareal</i> <b>Universität Zürich UZH</b> (ZH) - Zürich",
        "lat": 47.40027618408203,
        "lon": 8.551915168762207,
        "Kategorie": "UH",
        "schoolshort": "UZH",
        "name": "Tierspital Zürich",
        "quarter": "Oerlikon",
        "city": "Zürich",
        "address": "Winterthurerstrasse, 8057, Zürich",
        "zipcode": "8057"
    },
    {
        "label": "<i>Schul- und Hochschulareal</i> <b>Universität Zürich UZH, Standort Kilchberg</b> (ZH) - Zürichsee (ZH),Kilchberg (ZH)",
        "lat": 47.320098876953125,
        "lon": 8.55192756652832,
        "Kategorie": "UH",
        "schoolshort": "UZH",
        "name": "Unknown Amenity",
        "quarter": "Unknown Quarter",
        "city": "Unknown City",
        "address": "Seestrasse, 8802, ",
        "zipcode": "8802"
    },
    {
        "label": "<i>Schul- und Hochschulareal</i> <b>Universität Zürich UZH</b> (ZH) - Zürich",
        "lat": 47.361698150634766,
        "lon": 8.55378532409668,
        "Kategorie": "UH",
        "schoolshort": "UZH",
        "name": "Unknown Amenity",
        "quarter": "Kreis 8",
        "city": "Zürich",
        "address": "Mühlebachstrasse, 8008, Zürich",
        "zipcode": "8008"
    },
    {
        "label": "<i>Schul- und Hochschulareal</i> <b>Universität Zürich UZH</b> (ZH) - Zürich",
        "lat": 47.37624740600586,
        "lon": 8.53349494934082,
        "Kategorie": "UH",
        "schoolshort": "UZH",
        "name": "KIZ Tagesklinik Militärstrasse",
        "quarter": "Kreis 4",
        "city": "Zürich",
        "address": "Militärstrasse, 8004, Zürich",
        "zipcode": "8004"
    },
    {
        "label": "<i>Schul- und Hochschulareal</i> <b>Universität Zürich UZH, Standort Zentrum</b> (ZH) - Zürich",
        "lat": 47.373268127441406,
        "lon": 8.553496360778809,
        "Kategorie": "UH",
        "schoolshort": "UZH",
        "name": "Unknown Amenity",
        "quarter": "Fluntern",
        "city": "Zürich",
        "address": "Plattenstrasse, 8032, Zürich",
        "zipcode": "8032"
    },
    {
        "label": "<i>Schul- und Hochschulareal</i> <b>Universität Zürich UZH, Standort Oerlikon</b> (ZH) - Zürich",
        "lat": 47.4132194519043,
        "lon": 8.548888206481934,
        "Kategorie": "UH",
        "schoolshort": "UZH",
        "name": "Unknown Amenity",
        "quarter": "Seebach",
        "city": "Zürich",
        "address": "Andreasstrasse, 8050, Zürich",
        "zipcode": "8050"
    },
    {
        "label": "<i>Schul- und Hochschulareal</i> <b>Universität Zürich UZH</b> (ZH) - Zürich",
        "lat": 47.35749816894531,
        "lon": 8.55997085571289,
        "Kategorie": "UH",
        "schoolshort": "UZH",
        "name": "Unknown Amenity",
        "quarter": "Kreis 8",
        "city": "Zürich",
        "address": "Zollikerstrasse, 8008, Zürich",
        "zipcode": "8008"
    },
    {
        "label": "<i>Schul- und Hochschulareal</i> <b>Universität Zürich UZH</b> (ZH) - Zürich",
        "lat": 47.38440704345703,
        "lon": 8.542205810546875,
        "Kategorie": "UH",
        "schoolshort": "UZH",
        "name": "Unknown Amenity",
        "quarter": "Unterstrass",
        "city": "Zürich",
        "address": "Kurvenstrasse, 8006, Zürich",
        "zipcode": "8006"
    },
    {
        "label": "<i>Schul- und Hochschulareal</i> <b>Universität Zürich UZH</b> (ZH) - Zürich",
        "lat": 47.375213623046875,
        "lon": 8.5447998046875,
        "Kategorie": "UH",
        "schoolshort": "UZH",
        "name": "Unknown Amenity",
        "quarter": "Altstadt",
        "city": "Zürich",
        "address": "Zähringerstrasse, 8001, Zürich",
        "zipcode": "8001"
    },
    {
        "label": "<i>Schul- und Hochschulareal</i> <b>Universität Zürich UZH</b> (ZH) - Zürich",
        "lat": 47.35407257080078,
        "lon": 8.570358276367188,
        "Kategorie": "UH",
        "schoolshort": "UZH",
        "name": "Unknown Amenity",
        "quarter": "Kreis 8",
        "city": "Zürich",
        "address": "Lenggstrasse, 8008, Zürich",
        "zipcode": "8008"
    },
    {
        "label": "<i>Schul- und Hochschulareal</i> <b>Universität Zürich UZH</b> (ZH) - Zürich",
        "lat": 47.37287902832031,
        "lon": 8.553044319152832,
        "Kategorie": "UH",
        "schoolshort": "UZH",
        "name": "Unknown Amenity",
        "quarter": "Fluntern",
        "city": "Zürich",
        "address": "Freiestrasse, 8032, Zürich",
        "zipcode": "8032"
    },
    {
        "label": "<i>Schul- und Hochschulareal</i> <b>Universität Zürich UZH, Standort Oerlikon</b> (ZH) - Zürich",
        "lat": 47.41105270385742,
        "lon": 8.540749549865723,
        "Kategorie": "UH",
        "schoolshort": "UZH",
        "name": "Unknown Amenity",
        "quarter": "Oerlikon",
        "city": "Zürich",
        "address": "Affolternstrasse, 8050, Zürich",
        "zipcode": "8050"
    },
    {
        "label": "<i>Schul- und Hochschulareal</i> <b>Universität Zürich UZH</b> (ZH) - Zürich",
        "lat": 47.376922607421875,
        "lon": 8.550858497619629,
        "Kategorie": "UH",
        "schoolshort": "UZH",
        "name": "Unknown Amenity",
        "quarter": "Fluntern",
        "city": "Zürich",
        "address": "Sternwartstrasse, 8006, Zürich",
        "zipcode": "8006"
    },
    {
        "label": "<i>Schul- und Hochschulareal</i> <b>Universität Zürich UZH</b> (ZH) - Zürich",
        "lat": 47.37397766113281,
        "lon": 8.557172775268555,
        "Kategorie": "UH",
        "schoolshort": "UZH",
        "name": "Unknown Amenity",
        "quarter": "Fluntern",
        "city": "Zürich",
        "address": "Attenhoferstrasse, 8032, Zürich",
        "zipcode": "8032"
    },
    {
        "label": "<i>Schul- und Hochschulareal</i> <b>Universität Zürich UZH</b> (ZH) - Zürich",
        "lat": 47.36684036254883,
        "lon": 8.547531127929688,
        "Kategorie": "UH",
        "schoolshort": "UZH",
        "name": "Unknown Amenity",
        "quarter": "Altstadt",
        "city": "Zürich",
        "address": "Stadelhoferstrasse, 8001, Zürich",
        "zipcode": "8001"
    },
    {
        "label": "<i>Schul- und Hochschulareal</i> <b>Universität Zürich UZH</b> (ZH) - Zürich",
        "lat": 47.38166427612305,
        "lon": 8.543207168579102,
        "Kategorie": "UH",
        "schoolshort": "UZH",
        "name": "Unknown Amenity",
        "quarter": "Unterstrass",
        "city": "Zürich",
        "address": "Sumatrastrasse, 8006, Zürich",
        "zipcode": "8006"
    },
    {
        "label": "<i>Schul- und Hochschulareal</i> <b>Universität Zürich UZH</b> (ZH) - Zürich",
        "lat": 47.358367919921875,
        "lon": 8.560725212097168,
        "Kategorie": "UH",
        "schoolshort": "UZH",
        "name": "Unknown Amenity",
        "quarter": "Kreis 8",
        "city": "Zürich",
        "address": "Zollikerstrasse, 8008, Zürich",
        "zipcode": "8008"
    },
    {
        "label": "<i>Schul- und Hochschulareal</i> <b>Universität Zürich UZH</b> (ZH) - Zürich",
        "lat": 47.37302780151367,
        "lon": 8.55217456817627,
        "Kategorie": "UH",
        "schoolshort": "UZH",
        "name": "Unknown Amenity",
        "quarter": "Fluntern",
        "city": "Zürich",
        "address": "Zürichbergstrasse, 8032, Zürich",
        "zipcode": "8032"
    },
    {
        "label": "<i>Schul- und Hochschulareal</i> <b>Universität Zürich UZH</b> (ZH) - Zürich",
        "lat": 47.405948638916016,
        "lon": 8.564695358276367,
        "Kategorie": "UH",
        "schoolshort": "UZH",
        "name": "Unknown Amenity",
        "quarter": "Kreis 12",
        "city": "Zürich",
        "address": "Luegislandstrasse, 8051, Zürich",
        "zipcode": "8051"
    },
    {
        "label": "<i>Schul- und Hochschulareal</i> <b>Universität Zürich UZH</b> (ZH) - Zürich",
        "lat": 47.38490676879883,
        "lon": 8.541759490966797,
        "Kategorie": "UH",
        "schoolshort": "UZH",
        "name": "Unknown Amenity",
        "quarter": "Unterstrass",
        "city": "Zürich",
        "address": "Kurvenstrasse, 8006, Zürich",
        "zipcode": "8006"
    },
    {
        "label": "<i>Schul- und Hochschulareal</i> <b>Universität Zürich UZH</b> (ZH) - Zürich",
        "lat": 47.35868453979492,
        "lon": 8.558186531066895,
        "Kategorie": "UH",
        "schoolshort": "UZH",
        "name": "Unknown Amenity",
        "quarter": "Kreis 8",
        "city": "Zürich",
        "address": "Zollikerstrasse, 8008, Zürich",
        "zipcode": "8008"
    },
    {
        "label": "<i>Schul- und Hochschulareal</i> <b>Universität Zürich UZH</b> (ZH) - Zürich",
        "lat": 47.37207794189453,
        "lon": 8.550017356872559,
        "Kategorie": "UH",
        "schoolshort": "UZH",
        "name": "Unknown Amenity",
        "quarter": "Altstadt",
        "city": "Zürich",
        "address": "Rämistrasse, 8001, Zürich",
        "zipcode": "8001"
    },
    {
        "label": "<i>Schul- und Hochschulareal</i> <b>Università della Svizzera italiana USI, Campus Lugano Ovest</b> (TI) - Lugano",
        "lat": 46.01020050048828,
        "lon": 8.957698822021484,
        "Kategorie": "UH",
        "schoolshort": "USI",
        "name": "Unknown Amenity",
        "quarter": "Molino Nuovo",
        "city": "Unknown City",
        "address": "Via Antonio Fogazzaro, 6900, ",
        "zipcode": "6900"
    },
    {
        "label": "<i>Schul- und Hochschulareal</i> <b>Università della Svizzera italiana USI, Campus di Mendrisio</b> (TI) - Mendrisio",
        "lat": 45.866695404052734,
        "lon": 8.985228538513184,
        "Kategorie": "UH",
        "schoolshort": "USI",
        "name": "Unknown Amenity",
        "quarter": "Unknown Quarter",
        "city": "Unknown City",
        "address": "Via Giuseppe Buffi, 6872, ",
        "zipcode": "6872"
    },
    {
        "label": "<i>Schul- und Hochschulareal</i> <b>Pädagogische Hochschule Schaffhausen PHSH</b> (SH) - Schaffhausen",
        "lat": 47.70753860473633,
        "lon": 8.642210960388184,
        "Kategorie": "PH",
        "schoolshort": "PHSH",
        "name": "Unknown Amenity",
        "quarter": "Niklausen",
        "city": "Unknown City",
        "address": "Amsler-Laffon-Strasse, 8200, ",
        "zipcode": "8200"
    },
    {
        "label": "<i>Schul- und Hochschulareal</i> <b>Pädagogische Hochschule Schaffhausen PHSH</b> (SH) - Schaffhausen",
        "lat": 47.707340240478516,
        "lon": 8.645369529724121,
        "Kategorie": "PH",
        "schoolshort": "PHSH",
        "name": "Unknown Amenity",
        "quarter": "Niklausen",
        "city": "Unknown City",
        "address": "Ebnatstrasse, 8200, ",
        "zipcode": "8200"
    },
    {
        "label": "<i>Schul- und Hochschulareal</i> <b>Pädagogische Hochschule Luzern, Standort Sentimatt</b> (LU) - Luzern",
        "lat": 47.05387496948242,
        "lon": 8.296024322509766,
        "Kategorie": "PH",
        "schoolshort": "PHLU",
        "name": "Unknown Amenity",
        "quarter": "Unknown Quarter",
        "city": "Unknown City",
        "address": "Sentimatt, 6003, ",
        "zipcode": "6003"
    },
    {
        "label": "<i>Schul- und Hochschulareal</i> <b>Pädagogische Hochschule Luzern, Standort Frohburgstrasse</b> (LU) - Luzern",
        "lat": 47.04936599731445,
        "lon": 8.312407493591309,
        "Kategorie": "PH",
        "schoolshort": "PHLU",
        "name": "Unknown Amenity",
        "quarter": "Unknown Quarter",
        "city": "Unknown City",
        "address": "Frohburgstrasse, 6005, ",
        "zipcode": "6005"
    },
    {
        "label": "<i>Schul- und Hochschulareal</i> <b>Pädagogische Hochschule Luzern, Standort Pfistergasse</b> (LU) - Luzern",
        "lat": 47.0510368347168,
        "lon": 8.302388191223145,
        "Kategorie": "PH",
        "schoolshort": "PHLU",
        "name": "Pädagogische Hochschule Luzern",
        "quarter": "Unknown Quarter",
        "city": "Unknown City",
        "address": "Pfistergasse, 6003, ",
        "zipcode": "6003"
    },
    {
        "label": "<i>Schul- und Hochschulareal</i> <b>Pädagogische Hochschule Luzern, Standort Bellerive</b> (LU) - Luzern",
        "lat": 47.056644439697266,
        "lon": 8.329803466796875,
        "Kategorie": "PH",
        "schoolshort": "PHLU",
        "name": "Unknown Amenity",
        "quarter": "Unknown Quarter",
        "city": "Unknown City",
        "address": "Bellerivestrasse, 6006, ",
        "zipcode": "6006"
    },
    {
        "label": "<i>Schul- und Hochschulareal</i> <b>Pädagogische Hochschule Luzern, Standort Musegg</b> (LU) - Luzern",
        "lat": 47.05461502075195,
        "lon": 8.306063652038574,
        "Kategorie": "PH",
        "schoolshort": "PHLU",
        "name": "Unknown Amenity",
        "quarter": "Unknown Quarter",
        "city": "Unknown City",
        "address": "Schirmertorweg, 6004, ",
        "zipcode": "6004"
    },
    {
        "label": "<i>Schul- und Hochschulareal</i> <b>Pädagogische Hochschule Luzern, Standort Sagenmatt</b> (LU) - Luzern",
        "lat": 47.053775787353516,
        "lon": 8.2896089553833,
        "Kategorie": "PH",
        "schoolshort": "PHLU",
        "name": "Unknown Amenity",
        "quarter": "Reussbühl",
        "city": "Unknown City",
        "address": "Sagenmattstrasse, 6003, ",
        "zipcode": "6003"
    },
    {
        "label": "<i>Schul- und Hochschulareal</i> <b>Haute Ecole Pédagogique HEP-BEJUNE, Site de La Chaux-de-Fonds</b> (NE) - La Chaux-de-Fonds",
        "lat": 47.107749938964844,
        "lon": 6.82431173324585,
        "Kategorie": "PH",
        "schoolshort": "BEJUNE",
        "name": "HEP-BEJUNE",
        "quarter": "Unknown Quarter",
        "city": "Unknown City",
        "address": "Rue de Beauregard, 2300, ",
        "zipcode": "2300"
    },
    {
        "label": "<i>Schul- und Hochschulareal</i> <b>Haute Ecole Pédagogique HEP-BEJUNE, Site de Bienne</b> (BE) - Biel/Bienne,Brügg",
        "lat": 47.1381721496582,
        "lon": 7.268144130706787,
        "Kategorie": "PH",
        "schoolshort": "BEJUNE",
        "name": "Schulanlage Linde / Ecoles Tilleuls",
        "quarter": "Mâche/Mett",
        "city": "Unknown City",
        "address": "Chemin de la Ciblerie / Scheibenweg, 2503, ",
        "zipcode": "2503"
    },
    {
        "label": "<i>Schul- und Hochschulareal</i> <b>Haute Ecole Pédagogique HEP-BEJUNE, Site de Delémont</b> (JU) - Delémont",
        "lat": 47.362606048583984,
        "lon": 7.35295295715332,
        "Kategorie": "PH",
        "schoolshort": "BEJUNE",
        "name": "Unknown Amenity",
        "quarter": "Unknown Quarter",
        "city": "Unknown City",
        "address": "Route de Moutier, 2800, ",
        "zipcode": "2800"
    },
    {
        "label": "<i>Schul- und Hochschulareal</i> <b>Haute Ecole pédagogique Fribourg HEP FR, Site HEP III</b> (FR) - Fribourg",
        "lat": 46.81251525878906,
        "lon": 7.1595048904418945,
        "Kategorie": "PH",
        "schoolshort": "HEPFRI",
        "name": "Unknown Amenity",
        "quarter": "Schönberg/Schoenberg",
        "city": "Unknown City",
        "address": "Chemin du Palatinat, 1702, ",
        "zipcode": "1702"
    },
    {
        "label": "<i>Schul- und Hochschulareal</i> <b>Haute Ecole pédagogique Fribourg HEP FR, Site HEP I</b> (FR) - Fribourg",
        "lat": 46.811222076416016,
        "lon": 7.158876419067383,
        "Kategorie": "PH",
        "schoolshort": "HEPFRI",
        "name": "Haute École pédagogique",
        "quarter": "Pérolles",
        "city": "Unknown City",
        "address": "Rue de Morat / Murtengasse, 1700, ",
        "zipcode": "1700"
    },
    {
        "label": "<i>Schul- und Hochschulareal</i> <b>Haute Ecole pédagogique Fribourg HEP FR, Site HEP II</b> (FR) - Fribourg",
        "lat": 46.80936813354492,
        "lon": 7.1590352058410645,
        "Kategorie": "PH",
        "schoolshort": "HEPFRI",
        "name": "Unknown Amenity",
        "quarter": "Pérolles",
        "city": "Unknown City",
        "address": "Rue de Morat / Murtengasse, 1700, ",
        "zipcode": "1700"
    },
    {
        "label": "<i>Schul- und Hochschulareal</i> <b>Pädagogische Hochschule Graubünden Chur phGR</b> (GR) - Chur",
        "lat": 46.86703109741211,
        "lon": 9.536943435668945,
        "Kategorie": "PH",
        "schoolshort": "PHGR",
        "name": "Pädagogische Hochschule GR",
        "quarter": "Masans",
        "city": "Unknown City",
        "address": "Scalärastrasse, 7023, ",
        "zipcode": "7023"
    },
    {
        "label": "<i>Schul- und Hochschulareal</i> <b>Pädagogische Hochschule Zug</b> (ZG) - Zug",
        "lat": 47.16225814819336,
        "lon": 8.518654823303223,
        "Kategorie": "PH",
        "schoolshort": "PHZG",
        "name": "Pädagogische Hochschule Zug",
        "quarter": "Neustadt",
        "city": "Unknown City",
        "address": "Zugerbergstrasse, 6300, ",
        "zipcode": "6300"
    },
    {
        "label": "<i>Schul- und Hochschulareal</i> <b>Fachhochschule Nordwestschweiz FHNW, Pädagogische Hochschule, Standort Solothurn</b> (SO) - Solothurn",
        "lat": 47.21217727661133,
        "lon": 7.543616771697998,
        "Kategorie": "PH",
        "schoolshort": "PHFHNW",
        "name": "Unknown Amenity",
        "quarter": "Unknown Quarter",
        "city": "Unknown City",
        "address": "Obere Sternengasse, 4501, ",
        "zipcode": "4501"
    },
    {
        "label": "<i>Schul- und Hochschulareal</i> <b>Pädagogische Hochschule Bern PHBern, Standort Muesmattstrasse</b> (BE) - Bern",
        "lat": 46.95317459106445,
        "lon": 7.428527355194092,
        "Kategorie": "PH",
        "schoolshort": "PHBE",
        "name": "Standort Muesmatt PHBern",
        "quarter": "Unknown Quarter",
        "city": "Bern",
        "address": "Baltzerstrasse, 3012, Bern",
        "zipcode": "3012"
    },
    {
        "label": "<i>Schul- und Hochschulareal</i> <b>Pädagogische Hochschule Bern PHBern</b> (BE) - Bern",
        "lat": 46.9529914855957,
        "lon": 7.422307968139648,
        "Kategorie": "PH",
        "schoolshort": "PHBE",
        "name": "Standort Hochschulzentrum vonRoll",
        "quarter": "Unknown Quarter",
        "city": "Bern",
        "address": "Murtenstrasse, 3008, Bern",
        "zipcode": "3008"
    },
    {
        "label": "<i>Schul- und Hochschulareal</i> <b>Pädagogische Hochschule Bern PHBern, Standort Weltistrasse</b> (BE) - Bern",
        "lat": 46.94568634033203,
        "lon": 7.475581645965576,
        "Kategorie": "PH",
        "schoolshort": "PHBE",
        "name": "PHBern - Institut Heilpädagogik und Institut Weiterbildung",
        "quarter": "Unknown Quarter",
        "city": "Bern",
        "address": "Weltistrasse, 3006, Bern",
        "zipcode": "3006"
    },
    {
        "label": "<i>Schul- und Hochschulareal</i> <b>Pädagogische Hochschule Bern PHBern, Standort Muristalden</b> (BE) - Bern",
        "lat": 46.944278717041016,
        "lon": 7.460587501525879,
        "Kategorie": "PH",
        "schoolshort": "PHBE",
        "name": "Campus Muristalden",
        "quarter": "Unknown Quarter",
        "city": "Bern",
        "address": "Muristrasse, 3006, Bern",
        "zipcode": "3006"
    },
    {
        "label": "<i>Schul- und Hochschulareal</i> <b>Pädagogische Hochschule Bern PHBern, Standort Helvetiaplatz</b> (BE) - Bern",
        "lat": 46.94424057006836,
        "lon": 7.448553562164307,
        "Kategorie": "PH",
        "schoolshort": "PHBE",
        "name": "Unknown Amenity",
        "quarter": "Unknown Quarter",
        "city": "Bern",
        "address": "Feldeggweg, 3005, Bern",
        "zipcode": "3005"
    },
    {
        "label": "<i>Schul- und Hochschulareal</i> <b>Pädagogische Hochschule Thurgau PHTG</b> (TG) - Kreuzlingen",
        "lat": 47.647056579589844,
        "lon": 9.180352210998535,
        "Kategorie": "PH",
        "schoolshort": "PHTG",
        "name": "Unknown Amenity",
        "quarter": "Unknown Quarter",
        "city": "Unknown City",
        "address": "Weinstrasse, 8280, ",
        "zipcode": "8280"
    },
    {
        "label": "<i>Schul- und Hochschulareal</i> <b>Pädagogische Hochschule Wallis PH-VS, Standort Brig</b> (VS) - Brig-Glis",
        "lat": 46.3157958984375,
        "lon": 7.990724086761475,
        "Kategorie": "PH",
        "schoolshort": "PHVS",
        "name": "Unknown Amenity",
        "quarter": "Unknown Quarter",
        "city": "Brig-Glis",
        "address": "Alte Simplonstrasse, 3900, Brig-Glis",
        "zipcode": "3900"
    },
    {
        "label": "<i>Schul- und Hochschulareal</i> <b>Pädagogische Hochschule St. Gallen PHSG, Hochschulgebäude Mariaberg Rorschach</b> (SG) - Rorschach",
        "lat": 47.47188949584961,
        "lon": 9.495279312133789,
        "Kategorie": "PH",
        "schoolshort": "PHSG",
        "name": "PHSG Mariaberg",
        "quarter": "Unknown Quarter",
        "city": "Unknown City",
        "address": "Mariabergstrasse, 9400, ",
        "zipcode": "9400"
    },
    {
        "label": "<i>Schul- und Hochschulareal</i> <b>Pädagogische Hochschule St. Gallen PHSG, Hochschulgebäude Hadwig St. Gallen</b> (SG) - St. Gallen",
        "lat": 47.43019485473633,
        "lon": 9.38234806060791,
        "Kategorie": "PH",
        "schoolshort": "PHSG",
        "name": "Hadwig - pädagogische Hochschule des Kantons St. Gallen",
        "quarter": "St. Jakob",
        "city": "Unknown City",
        "address": "Notkerstrasse, 9007, ",
        "zipcode": "9007"
    },
    {
        "label": "<i>Schul- und Hochschulareal</i> <b>Pädagogische Hochschule St. Gallen PHSG, Hochschulgebäude Stella Maris Rorschach</b> (SG) - Rorschach",
        "lat": 47.47397994995117,
        "lon": 9.501343727111816,
        "Kategorie": "PH",
        "schoolshort": "PHSG",
        "name": "Unknown Amenity",
        "quarter": "Unknown Quarter",
        "city": "Unknown City",
        "address": "Müller-Friedbergstrasse, 9400, ",
        "zipcode": "9400"
    },
    {
        "label": "<i>Schul- und Hochschulareal</i> <b>Pädagogische Hochschule St. Gallen PHSG, Hochschulgebäude Gossau</b> (SG) - Gossau (SG)",
        "lat": 47.40973663330078,
        "lon": 9.2525053024292,
        "Kategorie": "PH",
        "schoolshort": "PHSG",
        "name": "Unknown Amenity",
        "quarter": "Unknown Quarter",
        "city": "Unknown City",
        "address": "Seminarstrasse, 9200, ",
        "zipcode": "9200"
    },
    {
        "label": "<i><i>Schul Hochschulareal</i></i> <b>Pädagogische Hochschule PHZH</b> (ZH) - Zürich",
        "lat": 47.3776969909668,
        "lon": 8.534499168395996,
        "Kategorie": "PH",
        "schoolshort": "PHZH",
        "name": "Unknown Amenity",
        "quarter": "Kreis 4",
        "city": "Zürich",
        "address": "Europaallee Passage, 8004, Zürich",
        "zipcode": "8004"
    },
    {
        "label": "<i>Schul- und Hochschulareal</i> <b>Haute école pédagogique du canton de Vaud HEP, Site de Sébeillon</b> (VD) - Lausanne",
        "lat": 46.52317810058594,
        "lon": 6.619101524353027,
        "Kategorie": "PH",
        "schoolshort": "HEPVD",
        "name": "Unknown Amenity",
        "quarter": "Unknown Quarter",
        "city": "Lausanne",
        "address": "Rue de Sébeillon, 1004, Lausanne",
        "zipcode": "1004"
    },
    {
        "label": "<i>Schul- und Hochschulareal</i> <b>Haute école pédagogique du canton de Vaud HEP, Site de Sévelin</b> (VD) - Lausanne",
        "lat": 46.52280044555664,
        "lon": 6.618963241577148,
        "Kategorie": "PH",
        "schoolshort": "HEPVD",
        "name": "Unknown Amenity",
        "quarter": "Unknown Quarter",
        "city": "Lausanne",
        "address": "Avenue de Sévelin, 1004, Lausanne",
        "zipcode": "1004"
    },
    {
        "label": "<i>Schul- und Hochschulareal</i> <b>Zürcher Hochschule für Angewandte Wissenschaften ZHAW, Winterthur</b> (ZH) - Winterthur",
        "lat": 47.49652862548828,
        "lon": 8.719242095947266,
        "Kategorie": "FH",
        "schoolshort": "ZHAW",
        "name": "Unknown Amenity",
        "quarter": "Stadt",
        "city": "Winterthur",
        "address": "Turbinenstrasse, 8400, Winterthur",
        "zipcode": "8400"
    },
    {
        "label": "<i>Schul- und Hochschulareal</i> <b>Zürcher Hochschule für Angewandte Wissenschaften ZHAW, Wädenswil</b> (ZH) - Wädenswil",
        "lat": 47.21951675415039,
        "lon": 8.687246322631836,
        "Kategorie": "FH",
        "schoolshort": "ZHAW",
        "name": "Unknown Amenity",
        "quarter": "Unknown Quarter",
        "city": "Unknown City",
        "address": "Einsiedlerstrasse, 8820, ",
        "zipcode": "8820"
    },
    {
        "label": "<i>Schul- und Hochschulareal</i> <b>Zürcher Hochschule für Angewandte Wissenschaften ZHAW, Wädenswil</b> (ZH) - Wädenswil",
        "lat": 47.220481872558594,
        "lon": 8.68529224395752,
        "Kategorie": "FH",
        "schoolshort": "ZHAW",
        "name": "Unknown Amenity",
        "quarter": "Unknown Quarter",
        "city": "Unknown City",
        "address": "Einsiedlerstrasse, 8820, ",
        "zipcode": "8820"
    },
    {
        "label": "<i>Schul- und Hochschulareal</i> <b>Zürcher Hochschule für Angewandte Wissenschaften ZHAW, Wädenswil</b> (ZH) - Wädenswil",
        "lat": 47.21805191040039,
        "lon": 8.68038558959961,
        "Kategorie": "FH",
        "schoolshort": "ZHAW",
        "name": "ZHAW Campus Grüental",
        "quarter": "Unknown Quarter",
        "city": "Unknown City",
        "address": "Grüentalweg, 8820, ",
        "zipcode": "8820"
    },
    {
        "label": "<i>Schul- und Hochschulareal</i> <b>Zürcher Hochschule für Angewandte Wissenschaften ZHAW, Winterthur</b> (ZH) - Winterthur",
        "lat": 47.497459411621094,
        "lon": 8.726640701293945,
        "Kategorie": "FH",
        "schoolshort": "ZHAW",
        "name": "Zürcher Hochschule für Angewandte Wissenschaften",
        "quarter": "Stadt",
        "city": "Winterthur",
        "address": "Steiggasse, 8400, Winterthur",
        "zipcode": "8400"
    },
    {
        "label": "<i>Schul- und Hochschulareal</i> <b>Zürcher Hochschule für Angewandte Wissenschaften ZHAW, Winterthur</b> (ZH) - Winterthur",
        "lat": 47.49684143066406,
        "lon": 8.717169761657715,
        "Kategorie": "FH",
        "schoolshort": "ZHAW",
        "name": "Unknown Amenity",
        "quarter": "Stadt",
        "city": "Winterthur",
        "address": "Katharina-Sulzer-Platz, 8400, Winterthur",
        "zipcode": "8400"
    },
    {
        "label": "<i>Schul- und Hochschulareal</i> <b>Zürcher Hochschule für Angewandte Wissenschaften ZHAW, Zürich, Campus Zentrum</b> (ZH) - Zürich",
        "lat": 47.37763977050781,
        "lon": 8.531746864318848,
        "Kategorie": "FH",
        "schoolshort": "ZHAW",
        "name": "Unknown Amenity",
        "quarter": "Kreis 4",
        "city": "Zürich",
        "address": "Militärstrasse, 8004, Zürich",
        "zipcode": "8004"
    },
    {
        "label": "<i>Schul- und Hochschulareal</i> <b>Zürcher Hochschule für Angewandte Wissenschaften ZHAW, Zürich, Campus Zentrum</b> (ZH) - Zürich",
        "lat": 47.377742767333984,
        "lon": 8.532485961914062,
        "Kategorie": "FH",
        "schoolshort": "ZHAW",
        "name": "Unknown Amenity",
        "quarter": "Kreis 4",
        "city": "Zürich",
        "address": "Lagerstrasse, 8004, Zürich",
        "zipcode": "8004"
    },
    {
        "label": "<i>Schul- und Hochschulareal</i> <b>Zürcher Hochschule für Angewandte Wissenschaften ZHAW, Winterthur</b> (ZH) - Winterthur",
        "lat": 47.503318786621094,
        "lon": 8.727288246154785,
        "Kategorie": "FH",
        "schoolshort": "ZHAW",
        "name": "ZHAW Campus St- Georgen-Platz",
        "quarter": "Stadt",
        "city": "Winterthur",
        "address": "Bahnfussweg, 8401, Winterthur",
        "zipcode": "8401"
    },
    {
        "label": "<i>Schul- und Hochschulareal</i> <b>Zürcher Hochschule für Angewandte Wissenschaften ZHAW, Winterthur</b> (ZH) - Winterthur",
        "lat": 47.497554779052734,
        "lon": 8.7313871383667,
        "Kategorie": "FH",
        "schoolshort": "ZHAW",
        "name": "Zürcher Hochschule für Angewandte Wissenschaften",
        "quarter": "Stadt",
        "city": "Winterthur",
        "address": "Steiggasse, 8400, Winterthur",
        "zipcode": "8400"
    },
    {
        "label": "<i>Schul- und Hochschulareal</i> <b>Zürcher Hochschule für Angewandte Wissenschaften ZHAW, Winterthur</b> (ZH) - Winterthur",
        "lat": 47.4934196472168,
        "lon": 8.716938972473145,
        "Kategorie": "FH",
        "schoolshort": "ZHAW",
        "name": "Unknown Amenity",
        "quarter": "Stadt",
        "city": "Winterthur",
        "address": "Lagerplatz, 8400, Winterthur",
        "zipcode": "8400"
    },
    {
        "label": "<i>Schul- und Hochschulareal</i> <b>Zürcher Hochschule für Angewandte Wissenschaften ZHAW, Winterthur</b> (ZH) - Winterthur",
        "lat": 47.49848937988281,
        "lon": 8.729511260986328,
        "Kategorie": "FH",
        "schoolshort": "ZHAW",
        "name": "Unknown Amenity",
        "quarter": "Stadt",
        "city": "Winterthur",
        "address": "Obere Kirchgasse, 8403, Winterthur",
        "zipcode": "8403"
    },
    {
        "label": "<i>Schul- und Hochschulareal</i> <b>Zürcher Hochschule für Angewandte Wissenschaften ZHAW, Winterthur</b> (ZH) - Winterthur",
        "lat": 47.49822235107422,
        "lon": 8.725258827209473,
        "Kategorie": "FH",
        "schoolshort": "ZHAW",
        "name": "Unknown Amenity",
        "quarter": "Stadt",
        "city": "Winterthur",
        "address": "Technikumstrasse, 8400, Winterthur",
        "zipcode": "8400"
    },
    {
        "label": "<i>Schul- und Hochschulareal</i> <b>Zürcher Hochschule für Angewandte Wissenschaften ZHAW, Wädenswil</b> (ZH) - Wädenswil",
        "lat": 47.225006103515625,
        "lon": 8.67932415008545,
        "Kategorie": "FH",
        "schoolshort": "ZHAW",
        "name": "Unknown Amenity",
        "quarter": "Unknown Quarter",
        "city": "Unknown City",
        "address": "Einsiedlerstrasse, 8820, ",
        "zipcode": "8820"
    },
    {
        "label": "<i>Schul- und Hochschulareal</i> <b>Zürcher Hochschule für Angewandte Wissenschaften ZHAW, Wädenswil</b> (ZH) - Wädenswil",
        "lat": 47.21976089477539,
        "lon": 8.685750007629395,
        "Kategorie": "FH",
        "schoolshort": "ZHAW",
        "name": "Unknown Amenity",
        "quarter": "Unknown Quarter",
        "city": "Unknown City",
        "address": "Einsiedlerstrasse, 8820, ",
        "zipcode": "8820"
    },
    {
        "label": "<i>Schul- und Hochschulareal</i> <b>Zürcher Hochschule für Angewandte Wissenschaften ZHAW, Winterthur</b> (ZH) - Winterthur",
        "lat": 47.50080871582031,
        "lon": 8.725110054016113,
        "Kategorie": "FH",
        "schoolshort": "ZHAW",
        "name": "Unknown Amenity",
        "quarter": "Stadt",
        "city": "Winterthur",
        "address": "Bahnhofplatz, 8400, Winterthur",
        "zipcode": "8400"
    },
    {
        "label": "<i>Schul- und Hochschulareal</i> <b>Zürcher Hochschule für Angewandte Wissenschaften ZHAW, Winterthur</b> (ZH) - Winterthur",
        "lat": 47.498104095458984,
        "lon": 8.729750633239746,
        "Kategorie": "FH",
        "schoolshort": "ZHAW",
        "name": "Unknown Amenity",
        "quarter": "Stadt",
        "city": "Winterthur",
        "address": "Technikumstrasse, 8400, Winterthur",
        "zipcode": "8400"
    },
    {
        "label": "<i>Schul- und Hochschulareal</i> <b>Zürcher Hochschule für Angewandte Wissenschaften ZHAW, Winterthur</b> (ZH) - Winterthur",
        "lat": 47.502220153808594,
        "lon": 8.726530075073242,
        "Kategorie": "FH",
        "schoolshort": "ZHAW",
        "name": "ZHAW Campus St- Georgen-Platz",
        "quarter": "Stadt",
        "city": "Winterthur",
        "address": "St.-Georgen-Platz, 8401, Winterthur",
        "zipcode": "8401"
    },
    {
        "label": "<i>Schul- und Hochschulareal</i> <b>Zürcher Hochschule für Angewandte Wissenschaften ZHAW, Winterthur</b> (ZH) - Winterthur",
        "lat": 47.497032165527344,
        "lon": 8.729731559753418,
        "Kategorie": "FH",
        "schoolshort": "ZHAW",
        "name": "Zürcher Hochschule für Angewandte Wissenschaften",
        "quarter": "Stadt",
        "city": "Winterthur",
        "address": "Steiggasse, 8400, Winterthur",
        "zipcode": "8400"
    },
    {
        "label": "<i>Schul- und Hochschulareal</i> <b>Zürcher Hochschule für Angewandte Wissenschaften ZHAW, Winterthur</b> (ZH) - Winterthur",
        "lat": 47.49474334716797,
        "lon": 8.71691608428955,
        "Kategorie": "FH",
        "schoolshort": "ZHAW",
        "name": "Unknown Amenity",
        "quarter": "Stadt",
        "city": "Winterthur",
        "address": "Technoparkstrasse, 8401, Winterthur",
        "zipcode": "8401"
    },
    {
        "label": "<i>Schul- und Hochschulareal</i> <b>Zürcher Hochschule für Angewandte Wissenschaften ZHAW, Winterthur</b> (ZH) - Winterthur",
        "lat": 47.49637985229492,
        "lon": 8.728982925415039,
        "Kategorie": "FH",
        "schoolshort": "ZHAW",
        "name": "Unknown Amenity",
        "quarter": "Stadt",
        "city": "Winterthur",
        "address": "Rosenstrasse, 8403, Winterthur",
        "zipcode": "8403"
    },
    {
        "label": "<i>Schul- und Hochschulareal</i> <b>Hochschule Luzern, Wirtschaft, Standort Rösslimatte</b> (LU) - Luzern",
        "lat": 47.043914794921875,
        "lon": 8.315038681030273,
        "Kategorie": "FH",
        "schoolshort": "HSLU",
        "name": "Unknown Amenity",
        "quarter": "Unknown Quarter",
        "city": "Unknown City",
        "address": "Rösslimatte, 6005, ",
        "zipcode": "6005"
    },
    {
        "label": "<i>Schul- und Hochschulareal</i> <b>Hochschule Luzern, Standort Baselstrasse</b> (LU) - Luzern",
        "lat": 47.053131103515625,
        "lon": 8.293081283569336,
        "Kategorie": "FH",
        "schoolshort": "HSLU",
        "name": "Unknown Amenity",
        "quarter": "Reussbühl",
        "city": "Unknown City",
        "address": "Baselstrasse, 6003, ",
        "zipcode": "6003"
    },
    {
        "label": "<i>Schul- und Hochschulareal</i> <b>Hochschule Luzern, Technik und Architektur</b> (LU) - Horw",
        "lat": 47.01374816894531,
        "lon": 8.305948257446289,
        "Kategorie": "FH",
        "schoolshort": "HSLU",
        "name": "Hochschule Luzern - Technik & Architektur",
        "quarter": "Ennethorw",
        "city": "Unknown City",
        "address": "Brünigweg, 6048, ",
        "zipcode": "6048"
    },
    {
        "label": "<i>Schul- und Hochschulareal</i> <b>Hochschule Luzern, Soziale Arbeit</b> (LU) - Luzern",
        "lat": 47.0466194152832,
        "lon": 8.314844131469727,
        "Kategorie": "FH",
        "schoolshort": "HSLU",
        "name": "Unknown Amenity",
        "quarter": "Unknown Quarter",
        "city": "Unknown City",
        "address": "Rösslimattstrasse, 6002, ",
        "zipcode": "6002"
    },
    {
        "label": "<i>Schul- und Hochschulareal</i> <b>Hochschule Luzern, Wirtschaft, Standort Zentralstrasse</b> (LU) - Luzern",
        "lat": 47.04853439331055,
        "lon": 8.30980396270752,
        "Kategorie": "FH",
        "schoolshort": "HSLU",
        "name": "Hochschule Luzern Wirtschaft",
        "quarter": "Unknown Quarter",
        "city": "Unknown City",
        "address": "Zentralstrasse, 6003, ",
        "zipcode": "6003"
    },
    {
        "label": "<i>Schul- und Hochschulareal</i> <b>Hochschule Luzern, Design und Kunst</b> (LU) - Emmen",
        "lat": 47.07119369506836,
        "lon": 8.27770709991455,
        "Kategorie": "FH",
        "schoolshort": "HSLU",
        "name": "Unknown Amenity",
        "quarter": "Emmenbrücke",
        "city": "Unknown City",
        "address": "Nylsuisseplatz, 6020, ",
        "zipcode": "6020"
    },
    {
        "label": "<i>Schul- und Hochschulareal</i> <b>Hochschule Luzern, Soziale Arbeit</b> (LU) - Luzern",
        "lat": 47.047977447509766,
        "lon": 8.313713073730469,
        "Kategorie": "FH",
        "schoolshort": "HSLU",
        "name": "Unknown Amenity",
        "quarter": "Unknown Quarter",
        "city": "Unknown City",
        "address": "Bürgenstrasse, 6002, ",
        "zipcode": "6002"
    },
    {
        "label": "<i>Schul- und Hochschulareal</i> <b>Hochschule Luzern, Musik</b> (LU) - Kriens",
        "lat": 47.032562255859375,
        "lon": 8.296968460083008,
        "Kategorie": "FH",
        "schoolshort": "HSLU",
        "name": "Unknown Amenity",
        "quarter": "Unknown Quarter",
        "city": "Unknown City",
        "address": "Arsenalstrasse, 6010, ",
        "zipcode": "6010"
    },
    {
        "label": "<i>Schul- und Hochschulareal</i> <b>Hochschule Luzern, Wirtschaft, Standort Frankenstrasse</b> (LU) - Luzern",
        "lat": 47.049034118652344,
        "lon": 8.30873966217041,
        "Kategorie": "FH",
        "schoolshort": "HSLU",
        "name": "Unknown Amenity",
        "quarter": "Unknown Quarter",
        "city": "Unknown City",
        "address": "Frankenstrasse, 6003, ",
        "zipcode": "6003"
    },
    {
        "label": "<i>Schul- und Hochschulareal</i> <b>Hochschule Luzern, Soziale Arbeit</b> (LU) - Luzern",
        "lat": 47.04795837402344,
        "lon": 8.314653396606445,
        "Kategorie": "FH",
        "schoolshort": "HSLU",
        "name": "Unknown Amenity",
        "quarter": "Unknown Quarter",
        "city": "Unknown City",
        "address": "Werftestrasse, 6005, ",
        "zipcode": "6005"
    },
    {
        "label": "<i>Schul- und Hochschulareal</i> <b>Kalaidos Banking+Finance School Vezia</b> (TI) - Vezia",
        "lat": 46.02779769897461,
        "lon": 8.93612003326416,
        "Kategorie": "FH",
        "schoolshort": "KALAI",
        "name": "Biblioteca del Centro di Studi Bancari",
        "quarter": "Unknown Quarter",
        "city": "Unknown City",
        "address": "Via Morosini, 6943, ",
        "zipcode": "6943"
    },
    {
        "label": "<i>Schul- und Hochschulareal</i> <b>Kalaidos Banking+Finance School</b> (ZH) - Zürich",
        "lat": 47.41545867919922,
        "lon": 8.54350471496582,
        "Kategorie": "FH",
        "schoolshort": "KALAI",
        "name": "Unknown Amenity",
        "quarter": "Seebach",
        "city": "Zürich",
        "address": "Jungholzstrasse, 8050, Zürich",
        "zipcode": "8050"
    },
    {
        "label": "<i>Schul- und Hochschulareal</i> <b>Kalaidos Banking+Finance School Lausanne</b> (VD) - Lausanne",
        "lat": 46.51943588256836,
        "lon": 6.635108947753906,
        "Kategorie": "FH",
        "schoolshort": "KALAI",
        "name": "Unknown Amenity",
        "quarter": "Unknown Quarter",
        "city": "Lausanne",
        "address": "Galeries Saint-François, 1003, Lausanne",
        "zipcode": "1003"
    },
    {
        "label": "<i>Schul- und Hochschulareal</i> <b>Haute Ecole de Santé Vaud HESAV, Site Beaumont</b> (VD) - Lausanne",
        "lat": 46.524085998535156,
        "lon": 6.644684314727783,
        "Kategorie": "FH",
        "schoolshort": "HESSO",
        "name": "Centre hospitalier universitaire vaudois",
        "quarter": "Unknown Quarter",
        "city": "Lausanne",
        "address": "Rue du Bugnon, 1011, Lausanne",
        "zipcode": "1011"
    },
    {
        "label": "<i><i>Schul Hochschulareal</i></i> <b>Haute Ecole Arc Ingénierie</b> (NE) - La Chaux-de-Fonds",
        "lat": 47.0793571472168,
        "lon": 6.7950310707092285,
        "Kategorie": "FH",
        "schoolshort": "HESSO",
        "name": "Unknown Amenity",
        "quarter": "Unknown Quarter",
        "city": "Unknown City",
        "address": "Eplatures-Grise, 2322, ",
        "zipcode": "2322"
    },
    {
        "label": "<i>Schul- und Hochschulareal</i> <b>Haute Ecole de gestion Fribourg HEG-FR</b> (FR) - Fribourg",
        "lat": 46.793678283691406,
        "lon": 7.156759262084961,
        "Kategorie": "FH",
        "schoolshort": "HESSO",
        "name": "Unknown Amenity",
        "quarter": "Pérolles",
        "city": "Unknown City",
        "address": "Chemin du Musée, 1700, ",
        "zipcode": "1700"
    },
    {
        "label": "<i>Schul- und Hochschulareal</i> <b>Haute Ecole de Santé Vaud HESAV, Site Bugnon</b> (VD) - Lausanne",
        "lat": 46.5242919921875,
        "lon": 6.640083312988281,
        "Kategorie": "FH",
        "schoolshort": "HESSO",
        "name": "Centre hospitalier universitaire vaudois",
        "quarter": "Unknown Quarter",
        "city": "Lausanne",
        "address": "Rue du Bugnon, 1011, Lausanne",
        "zipcode": "1011"
    },
    {
        "label": "<i><i>Schul Hochschulareal</i></i> <b>Haute Ecole de la Santé</b> (VD) - Lausanne",
        "lat": 46.529510498046875,
        "lon": 6.6228790283203125,
        "Kategorie": "FH",
        "schoolshort": "HESSO",
        "name": "Théâtre de Beaulieu",
        "quarter": "Unknown Quarter",
        "city": "Lausanne",
        "address": "Avenue des Bergières, 1004, Lausanne",
        "zipcode": "1004"
    },
    {
        "label": "<i>Schul- und Hochschulareal</i> <b>Haute Ecole d'Art et de Design Genève HEAD, Site James-Fazy</b> (GE) - Genève",
        "lat": 46.20893478393555,
        "lon": 6.141093730926514,
        "Kategorie": "FH",
        "schoolshort": "HESSO",
        "name": "Unknown Amenity",
        "quarter": "Grottes et Saint-Gervais",
        "city": "Genève",
        "address": "Boulevard James-Fazy, 1201, Genève",
        "zipcode": "1201"
    },
    {
        "label": "<i>Schul- und Hochschulareal</i> <b>Haute Ecole d'Art et de Design Genève HEAD, Site Encyclopédie</b> (GE) - Genève",
        "lat": 46.206905364990234,
        "lon": 6.135619163513184,
        "Kategorie": "FH",
        "schoolshort": "HESSO",
        "name": "Unknown Amenity",
        "quarter": "Saint-Jean et Charmilles",
        "city": "Genève",
        "address": "Chemin Galiffe, 8973, Genève",
        "zipcode": "8973"
    },
    {
        "label": "<i>Schul- und Hochschulareal</i> <b>Haute école spécialisée bernoise, Département Technique et informatique, Site de Vauffelin</b> (BE) - Sauge",
        "lat": 47.176307678222656,
        "lon": 7.277803897857666,
        "Kategorie": "FH",
        "schoolshort": "HESSO",
        "name": "Unknown Amenity",
        "quarter": "Unknown Quarter",
        "city": "Sauge",
        "address": "Route Principale, 2537, Sauge",
        "zipcode": "2537"
    },
    {
        "label": "<i>Schul- und Hochschulareal</i> <b>Haute Ecole d'Ingénierie et de Gestion du Canton de Vaud HEIG-VD, Site Centre St-Roch</b> (VD) - Yverdon-les-Bains",
        "lat": 46.78108596801758,
        "lon": 6.6472015380859375,
        "Kategorie": "FH",
        "schoolshort": "HESSO",
        "name": "Unknown Amenity",
        "quarter": "Unknown Quarter",
        "city": "Unknown City",
        "address": "Rue du Nord, 1401, ",
        "zipcode": "1401"
    },
    {
        "label": "<i>Schul- und Hochschulareal</i> <b>Haute école d'ingénieurs et d'architectes de Fribourg HEIA-FR, Site Pérolles</b> (FR) - Fribourg",
        "lat": 46.792728424072266,
        "lon": 7.1603922843933105,
        "Kategorie": "FH",
        "schoolshort": "HESSO",
        "name": "Université de Fribourg - Pérolles",
        "quarter": "Pérolles",
        "city": "Unknown City",
        "address": "180, 1705, ",
        "zipcode": "1705"
    },
    {
        "label": "<i>Schul- und Hochschulareal</i> <b>Haute école de musique de Genève HEM, Rue du Diorama</b> (GE) - Genève",
        "lat": 46.20231628417969,
        "lon": 6.138455390930176,
        "Kategorie": "FH",
        "schoolshort": "HESSO",
        "name": "Unknown Amenity",
        "quarter": "Jonction",
        "city": "Genève",
        "address": "Rue du Diorama, 1205, Genève",
        "zipcode": "1205"
    },
    {
        "label": "<i>Schul- und Hochschulareal</i> <b>Haute Ecole de musique de Genève HEM, Site de Neuchâtel</b> (NE) - Neuchâtel",
        "lat": 46.998653411865234,
        "lon": 6.9417924880981445,
        "Kategorie": "FH",
        "schoolshort": "HESSO",
        "name": "Unknown Amenity",
        "quarter": "Unknown Quarter",
        "city": "Unknown City",
        "address": "Espace de l'Europe, 2000, ",
        "zipcode": "2000"
    },
    {
        "label": "<i>Schul- und Hochschulareal</i> <b>Haute Ecole Arc, Site de Neuchâtel</b> (NE) - Neuchâtel",
        "lat": 46.998653411865234,
        "lon": 6.9417924880981445,
        "Kategorie": "FH",
        "schoolshort": "HESSO",
        "name": "Unknown Amenity",
        "quarter": "Unknown Quarter",
        "city": "Unknown City",
        "address": "Espace de l'Europe, 2000, ",
        "zipcode": "2000"
    },
    {
        "label": "<i>Schul- und Hochschulareal</i> <b>Haute école de travail social Genève HETS, Infotheque, Psychomotricité</b> (GE) - Genève",
        "lat": 46.19256591796875,
        "lon": 6.14595890045166,
        "Kategorie": "FH",
        "schoolshort": "HESSO",
        "name": "Unknown Amenity",
        "quarter": "Plainpalais",
        "city": "Genève",
        "address": "Rue du Pré-Jérôme, 1205, Genève",
        "zipcode": "1205"
    },
    {
        "label": "<i>Schul- und Hochschulareal</i> <b>Haute Ecole d'Art et de Design Genève HEAD, Site Général-Dufour</b> (GE) - Genève",
        "lat": 46.202369689941406,
        "lon": 6.140691757202148,
        "Kategorie": "FH",
        "schoolshort": "HESSO",
        "name": "Unknown Amenity",
        "quarter": "Cité",
        "city": "Genève",
        "address": "Rue du Général-Dufour, 1204, Genève",
        "zipcode": "1204"
    },
    {
        "label": "<i><i>Schul Hochschulareal</i></i> <b>Haute école de viticulture et oenologie</b> (VD) - Nyon",
        "lat": 46.398014068603516,
        "lon": 6.232863426208496,
        "Kategorie": "FH",
        "schoolshort": "HESSO",
        "name": "HES-SO Changins (Agroscope)",
        "quarter": "Unknown Quarter",
        "city": "Unknown City",
        "address": "Chemin du Groseillier, 1260, ",
        "zipcode": "1260"
    },
    {
        "label": "<i>Schul- und Hochschulareal</i> <b>Haute Ecole de Santé Vaud HESAV</b> (VD) - Lausanne",
        "lat": 46.510765075683594,
        "lon": 6.63123893737793,
        "Kategorie": "FH",
        "schoolshort": "HESSO",
        "name": "Unknown Amenity",
        "quarter": "Unknown Quarter",
        "city": "Lausanne",
        "address": "Avenue de l'Élysée, 1006, Lausanne",
        "zipcode": "1006"
    },
    {
        "label": "<i>Schul- und Hochschulareal</i> <b>Haute école de travail social Genève</b> (GE) - Genève",
        "lat": 46.19355392456055,
        "lon": 6.144640922546387,
        "Kategorie": "FH",
        "schoolshort": "HESSO",
        "name": "Unknown Amenity",
        "quarter": "Plainpalais",
        "city": "Genève",
        "address": "Rue Prévost-Martin, 1205, Genève",
        "zipcode": "1205"
    },
    {
        "label": "<i>Schul- und Hochschulareal</i> <b>Haute école des arts de la scène, Manufacture</b> (VD) - Lausanne",
        "lat": 46.52690887451172,
        "lon": 6.604745388031006,
        "Kategorie": "FH",
        "schoolshort": "HESSO",
        "name": "Unknown Amenity",
        "quarter": "Unknown Quarter",
        "city": "Lausanne",
        "address": "Rue du Grand-Pré, 1008, Lausanne",
        "zipcode": "1008"
    },
    {
        "label": "<i>Schul- und Hochschulareal</i> <b>Haute Ecole de Gestion de Genève HEG, Campus de Battelle</b> (GE) - Carouge (GE)",
        "lat": 46.17578125,
        "lon": 6.139766693115234,
        "Kategorie": "FH",
        "schoolshort": "HESSO",
        "name": "Université Battelle",
        "quarter": "La Praille",
        "city": "Unknown City",
        "address": "Route de Drize, 1234, ",
        "zipcode": "1234"
    },
    {
        "label": "<i>Schul- und Hochschulareal</i> <b>Haute Ecole Arc Ingénierie, Pôle horloger, Le Locle</b> (NE) - Le Locle",
        "lat": 47.05466842651367,
        "lon": 6.7428412437438965,
        "Kategorie": "FH",
        "schoolshort": "HESSO",
        "name": "Unknown Amenity",
        "quarter": "Unknown Quarter",
        "city": "Unknown City",
        "address": "Avenue de l'Hôtel-de-Ville, 2400, ",
        "zipcode": "2400"
    },
    {
        "label": "<i>Schul- und Hochschulareal</i> <b>Haute Ecole Arc Ingénierie, Parc technologique de St-Imier</b> (BE) - Saint-Imier",
        "lat": 47.15504837036133,
        "lon": 7.002590656280518,
        "Kategorie": "FH",
        "schoolshort": "HESSO",
        "name": "PTSI/He-ARC",
        "quarter": "Unknown Quarter",
        "city": "Unknown City",
        "address": "Rue de la Serre, 2610, ",
        "zipcode": "2610"
    },
    {
        "label": "<i>Schul- und Hochschulareal</i> <b>Haute École d'Ingénierie et de Gestion du Canton de Vaud HEIG-VD, Site de Cheseaux</b> (VD) - Yverdon-les-Bains",
        "lat": 46.7793083190918,
        "lon": 6.659737586975098,
        "Kategorie": "FH",
        "schoolshort": "HESSO",
        "name": "Unknown Amenity",
        "quarter": "Unknown Quarter",
        "city": "Unknown City",
        "address": "Route de Cheseaux, 1401, ",
        "zipcode": "1401"
    },
    {
        "label": "<i>Schul- und Hochschulareal</i> <b>Haute école de santé Fribourg HEdS-FR, St-Justin</b> (FR) - Fribourg",
        "lat": 46.807735443115234,
        "lon": 7.1532979011535645,
        "Kategorie": "FH",
        "schoolshort": "HESSO",
        "name": "Unknown Amenity",
        "quarter": "Pérolles",
        "city": "Unknown City",
        "address": "Rue de Rome, 1700, ",
        "zipcode": "1700"
    },
    {
        "label": "<i>Schul- und Hochschulareal</i> <b>Haute Ecole de Travail Social HES-SO Valais</b> (VS) - Sierre",
        "lat": 46.29275894165039,
        "lon": 7.536412715911865,
        "Kategorie": "FH",
        "schoolshort": "HESSO",
        "name": "Médiathèque HES-SO Valais - Social, Gestion & Tourisme",
        "quarter": "Unknown Quarter",
        "city": "Unknown City",
        "address": "Route de la Plaine, 3960, ",
        "zipcode": "3960"
    },
    {
        "label": "<i>Schul- und Hochschulareal</i> <b>Haute Ecole de Gestion et Tourisme HES-SO Valais</b> (VS) - Sierre",
        "lat": 46.29275894165039,
        "lon": 7.536412715911865,
        "Kategorie": "FH",
        "schoolshort": "HESSO",
        "name": "Médiathèque HES-SO Valais - Social, Gestion & Tourisme",
        "quarter": "Unknown Quarter",
        "city": "Unknown City",
        "address": "Route de la Plaine, 3960, ",
        "zipcode": "3960"
    },
    {
        "label": "<i>Schul- und Hochschulareal</i> <b>Haute Ecole d'Art et de Design Genève HEAD, Site Boulevard Helvétique</b> (GE) - Genève",
        "lat": 46.19857406616211,
        "lon": 6.150982856750488,
        "Kategorie": "FH",
        "schoolshort": "HESSO",
        "name": "Unknown Amenity",
        "quarter": "Cité",
        "city": "Genève",
        "address": "Boulevard Helvétique, 1205, Genève",
        "zipcode": "1205"
    },
    {
        "label": "<i>Schul- und Hochschulareal</i> <b>Haute Ecole d'Ingénierie HES-SO Valais</b> (VS) - Sion",
        "lat": 46.24058532714844,
        "lon": 7.358895778656006,
        "Kategorie": "FH",
        "schoolshort": "HESSO",
        "name": "HES-SO Valais",
        "quarter": "Unknown Quarter",
        "city": "Unknown City",
        "address": "Chemin de la Sitterie, 1950, ",
        "zipcode": "1950"
    },
    {
        "label": "<i>Schul- und Hochschulareal</i> <b>Haute école de viticulture et oenologie Changins</b> (VD) - Duillier",
        "lat": 46.400028228759766,
        "lon": 6.235716342926025,
        "Kategorie": "FH",
        "schoolshort": "HESSO",
        "name": "Unknown Amenity",
        "quarter": "Unknown Quarter",
        "city": "Unknown City",
        "address": "Route de Nyon, 1266, ",
        "zipcode": "1266"
    },
    {
        "label": "<i>Schul- und Hochschulareal</i> <b>Haute école d'ingénieurs et d'architectes de Fribourg HEIA-FR, Site Beauregard</b> (FR) - Fribourg",
        "lat": 46.80315017700195,
        "lon": 7.145684242248535,
        "Kategorie": "FH",
        "schoolshort": "HESSO",
        "name": "Unknown Amenity",
        "quarter": "Pérolles",
        "city": "Unknown City",
        "address": "Rue de la Carrière, 1700, ",
        "zipcode": "1700"
    },
    {
        "label": "<i>Schul- und Hochschulareal</i> <b>Haute Ecole de l'Arc Jurassien HE-Arc, Site de Delémont</b> (JU) - Delémont",
        "lat": 47.362606048583984,
        "lon": 7.35295295715332,
        "Kategorie": "FH",
        "schoolshort": "HESSO",
        "name": "Unknown Amenity",
        "quarter": "Unknown Quarter",
        "city": "Unknown City",
        "address": "Route de Moutier, 2800, ",
        "zipcode": "2800"
    },
    {
        "label": "<i>Schul- und Hochschulareal</i> <b>Haute école de travail social et de la santé Lausanne HETSL</b> (VD) - Lausanne",
        "lat": 46.54061508178711,
        "lon": 6.648189067840576,
        "Kategorie": "FH",
        "schoolshort": "HESSO",
        "name": "EESP",
        "quarter": "Unknown Quarter",
        "city": "Lausanne",
        "address": "Chemin des Abeilles, 1010, Lausanne",
        "zipcode": "1010"
    },
    {
        "label": "<i>Schul- und Hochschulareal</i> <b>Haute école de musique de Genève HEM, Administration</b> (GE) - Genève",
        "lat": 46.2025260925293,
        "lon": 6.139133453369141,
        "Kategorie": "FH",
        "schoolshort": "HESSO",
        "name": "Unknown Amenity",
        "quarter": "Jonction",
        "city": "Genève",
        "address": "Rue de la Synagogue, 1205, Genève",
        "zipcode": "1205"
    },
    {
        "label": "<i>Schul- und Hochschulareal</i> <b>Haute École d'Art et de Design Genève HEAD, Site Franchises</b> (GE) - Genève",
        "lat": 46.20982360839844,
        "lon": 6.121776103973389,
        "Kategorie": "FH",
        "schoolshort": "HESSO",
        "name": "Unknown Amenity",
        "quarter": "Saint-Jean et Charmilles",
        "city": "Genève",
        "address": "Rue de Lyon, 1203, Genève",
        "zipcode": "1203"
    },
    {
        "label": "<i>Schul- und Hochschulareal</i> <b>Haute Ecole Arc, Site de Neuchâtel</b> (NE) - Neuchâtel",
        "lat": 46.99762725830078,
        "lon": 6.938662528991699,
        "Kategorie": "FH",
        "schoolshort": "HESSO",
        "name": "Unknown Amenity",
        "quarter": "Unknown Quarter",
        "city": "Unknown City",
        "address": "Espace de l'Europe, 2000, ",
        "zipcode": "2000"
    },
    {
        "label": "<i>Schul- und Hochschulareal</i> <b>Haute école d'ingénierie et d'architecture de Fribourg HEIA-FR, Site Arsenaux</b> (FR) - Fribourg",
        "lat": 46.7962532043457,
        "lon": 7.152294158935547,
        "Kategorie": "FH",
        "schoolshort": "HESSO",
        "name": "Unknown Amenity",
        "quarter": "Pérolles",
        "city": "Unknown City",
        "address": "Route des Arsenaux, 1700, ",
        "zipcode": "1700"
    },
    {
        "label": "<i>Schul- und Hochschulareal</i> <b>Haute École de Musique Vaud Valais Fribourg HEMU, Site de Fribourg</b> (FR) - Fribourg,Granges-Paccot",
        "lat": 46.81254577636719,
        "lon": 7.141256809234619,
        "Kategorie": "FH",
        "schoolshort": "HESSO",
        "name": "Unknown Amenity",
        "quarter": "Agy",
        "city": "Unknown City",
        "address": "Route Louis-Braille, 1763, ",
        "zipcode": "1763"
    },
    {
        "label": "<i>Schul- und Hochschulareal</i> <b>Haute école de musique de Genève HEM, Rue Petitot</b> (GE) - Genève",
        "lat": 46.20302963256836,
        "lon": 6.1417412757873535,
        "Kategorie": "FH",
        "schoolshort": "HESSO",
        "name": "Unknown Amenity",
        "quarter": "Cité",
        "city": "Genève",
        "address": "Rue Jean-Petitot, 1204, Genève",
        "zipcode": "1204"
    },
    {
        "label": "<i>Schul- und Hochschulareal</i> <b>Haute Ecole de Musique de Lausanne HEMU, Site du Flon</b> (VD) - Lausanne",
        "lat": 46.52133560180664,
        "lon": 6.626607418060303,
        "Kategorie": "FH",
        "schoolshort": "HESSO",
        "name": "Unknown Amenity",
        "quarter": "Unknown Quarter",
        "city": "Lausanne",
        "address": "Rue des Côtes-de-Montbenon, 1001, Lausanne",
        "zipcode": "1001"
    },
    {
        "label": "<i>Schul- und Hochschulareal</i> <b>Haute Ecole de Santé HES-SO Valais, Site de Sion</b> (VS) - Sion",
        "lat": 46.235679626464844,
        "lon": 7.351088047027588,
        "Kategorie": "FH",
        "schoolshort": "HESSO",
        "name": "Unknown Amenity",
        "quarter": "Unknown Quarter",
        "city": "Unknown City",
        "address": "Chemin de l'Agasse, 1950, ",
        "zipcode": "1950"
    },
    {
        "label": "<i>Schul- und Hochschulareal</i> <b>Haute Ecole de Santé Vaud HESAV, Site César-Roux</b> (VD) - Lausanne",
        "lat": 46.524375915527344,
        "lon": 6.638319969177246,
        "Kategorie": "FH",
        "schoolshort": "HESSO",
        "name": "Centre hospitalier universitaire vaudois",
        "quarter": "Unknown Quarter",
        "city": "Lausanne",
        "address": "Rue du Bugnon, 1011, Lausanne",
        "zipcode": "1011"
    },
    {
        "label": "<i>Schul- und Hochschulareal</i> <b>Haute école du paysage, d'ingénierie et d'architecture de Genève HEPIA, Site Genève</b> (GE) - Genève",
        "lat": 46.20930099487305,
        "lon": 6.135863780975342,
        "Kategorie": "FH",
        "schoolshort": "HESSO",
        "name": "Haute école du paysage d'ingénierie et d'architecture de Genève",
        "quarter": "Grottes et Saint-Gervais",
        "city": "Genève",
        "address": "Rue de la Prairie, 1202, Genève",
        "zipcode": "1202"
    },
    {
        "label": "<i>Schul- und Hochschulareal</i> <b>Interstaatliche Hochschule für Technik Buchs NTB, Studienzentrum St. Gallen</b> (SG) - St. Gallen",
        "lat": 47.41779708862305,
        "lon": 9.346978187561035,
        "Kategorie": "FH",
        "schoolshort": "OST",
        "name": "Unknown Amenity",
        "quarter": "Lachen",
        "city": "Unknown City",
        "address": "Schönauweg, 9000, ",
        "zipcode": "9000"
    },
    {
        "label": "<i><i>Schul Hochschulareal</i></i> <b>Interstaatliche Hochschule für Technik NTB</b> (SG) - Buchs (SG)",
        "lat": 47.17267990112305,
        "lon": 9.473700523376465,
        "Kategorie": "FH",
        "schoolshort": "OST",
        "name": "Ostschweizer Fachhochschule Campus Buchs",
        "quarter": "Unknown Quarter",
        "city": "Unknown City",
        "address": "Oberstüdtlistrasse, 9470, ",
        "zipcode": "9470"
    },
    {
        "label": "<i>Schul- und Hochschulareal</i> <b>Scuola universitaria professionale della Svizzera italiana SUPSI, Dipartimento economia aziendale, sanità e sociale</b> (TI) - Manno",
        "lat": 46.03580093383789,
        "lon": 8.926456451416016,
        "Kategorie": "FH",
        "schoolshort": "SUPSI",
        "name": "Unknown Amenity",
        "quarter": "Unknown Quarter",
        "city": "Unknown City",
        "address": "Via Violino, 6928, ",
        "zipcode": "6928"
    },
    {
        "label": "<i>Schul- und Hochschulareal</i> <b>Scuola universitaria professionale della Svizzera italiana SUPSI, Scuola Teatro Dimitri</b> (TI) - Terre di Pedemonte",
        "lat": 46.18621826171875,
        "lon": 8.731925010681152,
        "Kategorie": "FH",
        "schoolshort": "SUPSI",
        "name": "Unknown Amenity",
        "quarter": "Unknown Quarter",
        "city": "Terre di Pedemonte",
        "address": "Stradón, 6653, Terre di Pedemonte",
        "zipcode": "6653"
    },
    {
        "label": "<i>Schul- und Hochschulareal</i> <b>Scuola universitaria professionale della Svizzera italiana SUPSI, Direzione</b> (TI) - Manno",
        "lat": 46.031494140625,
        "lon": 8.924459457397461,
        "Kategorie": "FH",
        "schoolshort": "SUPSI",
        "name": "Unknown Amenity",
        "quarter": "Unknown Quarter",
        "city": "Unknown City",
        "address": "Via Pobiette, 6928, ",
        "zipcode": "6928"
    },
    {
        "label": "<i>Schul- und Hochschulareal</i> <b>Scuola universitaria professionale della Svizzera italiana SUPSI, Dipartimento formazione e apprendimento</b> (TI) - Locarno",
        "lat": 46.1673698425293,
        "lon": 8.791525840759277,
        "Kategorie": "FH",
        "schoolshort": "SUPSI",
        "name": "Unknown Amenity",
        "quarter": "Locarno Monti",
        "city": "Unknown City",
        "address": "Piazza di San Francesco, 6600, ",
        "zipcode": "6600"
    },
    {
        "label": "<i>Schul- und Hochschulareal</i> <b>Scuola universitaria professionale della Svizzera italiana SUPSI, Conservatorio della Svizzera italiana</b> (TI) - Lugano",
        "lat": 46.00609588623047,
        "lon": 8.939598083496094,
        "Kategorie": "FH",
        "schoolshort": "SUPSI",
        "name": "Conservatorio della Svizzera Italiana",
        "quarter": "Molino Nuovo",
        "city": "Unknown City",
        "address": "Via Soldino, 6932, ",
        "zipcode": "6932"
    },
    {
        "label": "<i>Schul- und Hochschulareal</i> <b>Berner Fachhochschule, Technik und Informatik, Standort Nidau</b> (BE) - Nidau",
        "lat": 47.12734603881836,
        "lon": 7.237982749938965,
        "Kategorie": "FH",
        "schoolshort": "FHBE",
        "name": "Unknown Amenity",
        "quarter": "Unknown Quarter",
        "city": "Unknown City",
        "address": "Schlossstrasse, 2560, ",
        "zipcode": "2560"
    },
    {
        "label": "<i>Schul- und Hochschulareal</i> <b>Berner Fachhochschule, Fachbereich Gestaltung und Kunst</b> (BE) - Bern",
        "lat": 46.94668960571289,
        "lon": 7.39146089553833,
        "Kategorie": "FH",
        "schoolshort": "FHBE",
        "name": "Hochschule der Künste Bern",
        "quarter": "Unknown Quarter",
        "city": "Bern",
        "address": "Fellerstrasse, 3027, Bern",
        "zipcode": "3027"
    },
    {
        "label": "<i>Schul- und Hochschulareal</i> <b>Berner Fachhochschule, Fachbereich Konservierung und Restaurierung</b> (BE) - Bern",
        "lat": 46.94668960571289,
        "lon": 7.39146089553833,
        "Kategorie": "FH",
        "schoolshort": "FHBE",
        "name": "Hochschule der Künste Bern",
        "quarter": "Unknown Quarter",
        "city": "Bern",
        "address": "Fellerstrasse, 3027, Bern",
        "zipcode": "3027"
    },
    {
        "label": "<i>Schul- und Hochschulareal</i> <b>Berner Fachhochschule, Fachbereich Soziale Arbeit</b> (BE) - Bern",
        "lat": 46.95143508911133,
        "lon": 7.43532657623291,
        "Kategorie": "FH",
        "schoolshort": "FHBE",
        "name": "Berner Fachhochscule BFH",
        "quarter": "Unknown Quarter",
        "city": "Bern",
        "address": "Falkenplatz, 3012, Bern",
        "zipcode": "3012"
    },
    {
        "label": "<i>Schul- und Hochschulareal</i> <b>Berner Fachhochschule, Fachbereich Wirtschaft</b> (BE) - Bern",
        "lat": 46.94231414794922,
        "lon": 7.440577983856201,
        "Kategorie": "FH",
        "schoolshort": "FHBE",
        "name": "BFH Wirtschaft",
        "quarter": "Sandrain",
        "city": "Bern",
        "address": "Brückenstrasse, 3005, Bern",
        "zipcode": "3005"
    },
    {
        "label": "<i>Schul- und Hochschulareal</i> <b>Berner Fachhochschule, Architektur, Bauingenieurwesen und Maschinentechnik, Standort Burgdorf</b> (BE) - Burgdorf",
        "lat": 47.0572395324707,
        "lon": 7.621702671051025,
        "Kategorie": "FH",
        "schoolshort": "FHBE",
        "name": "Berner Fachhochschule - Technik und Informatik",
        "quarter": "Im Choser",
        "city": "Unknown City",
        "address": "Pestalozzistrasse, 3400, ",
        "zipcode": "3400"
    },
    {
        "label": "<i>Schul- und Hochschulareal</i> <b>Berner Fachhochschule, Fachbereich Gesundheit</b> (BE) - Bern",
        "lat": 46.94878005981445,
        "lon": 7.42734432220459,
        "Kategorie": "FH",
        "schoolshort": "FHBE",
        "name": "Berner Fachhochschule Gesundheit",
        "quarter": "Unknown Quarter",
        "city": "Bern",
        "address": "Murtenstrasse, 3008, Bern",
        "zipcode": "3008"
    },
    {
        "label": "<i>Schul- und Hochschulareal</i> <b>Berner Fachhochschule, Hochschule der Künste, Schweizer Opernstudio, Standort Biel</b> (BE) - Biel/Bienne",
        "lat": 47.141334533691406,
        "lon": 7.245272636413574,
        "Kategorie": "FH",
        "schoolshort": "FHBE",
        "name": "Unknown Amenity",
        "quarter": "Altstadt / Vieille Ville",
        "city": "Unknown City",
        "address": "Place du Bourg / Burgplatz, 2501, ",
        "zipcode": "2501"
    },
    {
        "label": "<i>Schul- und Hochschulareal</i> <b>Berner Fachhochschule, Hochschule der Künste, Fachbereich Musik und Bewegung (Rhythmik), Standort Biel</b> (BE) - Biel/Bienne",
        "lat": 47.141334533691406,
        "lon": 7.245272636413574,
        "Kategorie": "FH",
        "schoolshort": "FHBE",
        "name": "Unknown Amenity",
        "quarter": "Altstadt / Vieille Ville",
        "city": "Unknown City",
        "address": "Place du Bourg / Burgplatz, 2501, ",
        "zipcode": "2501"
    },
    {
        "label": "<i>Schul- und Hochschulareal</i> <b>Berner Fachhochschule, Fachbereich Musik</b> (BE) - Bern",
        "lat": 46.95558166503906,
        "lon": 7.460562705993652,
        "Kategorie": "FH",
        "schoolshort": "FHBE",
        "name": "Hochschule der Künste Bern - Musik und Medienkunst",
        "quarter": "Unknown Quarter",
        "city": "Bern",
        "address": "Kasernenstrasse, 3013, Bern",
        "zipcode": "3013"
    },
    {
        "label": "<i>Schul- und Hochschulareal</i> <b>Berner Fachhochschule, Fachbereich Musik</b> (BE) - Bern",
        "lat": 46.956298828125,
        "lon": 7.473627090454102,
        "Kategorie": "FH",
        "schoolshort": "FHBE",
        "name": "Unknown Amenity",
        "quarter": "Unknown Quarter",
        "city": "Bern",
        "address": "Ostermundigenstrasse, 3006, Bern",
        "zipcode": "3006"
    },
    {
        "label": "<i>Schul- und Hochschulareal</i> <b>Berner Fachhochschule, Fachbereich Oper/Theater</b> (BE) - Bern",
        "lat": 46.95698165893555,
        "lon": 7.47117805480957,
        "Kategorie": "FH",
        "schoolshort": "FHBE",
        "name": "Berner Fachhochschule - Hochschule der Künste - Musik/Tanz",
        "quarter": "Unknown Quarter",
        "city": "Bern",
        "address": "Zikadenweg, 3006, Bern",
        "zipcode": "3006"
    },
    {
        "label": "<i>Schul- und Hochschulareal</i> <b>Berner Fachhochschule, Technik und Informatik, Standort Biel</b> (BE) - Biel/Bienne",
        "lat": 47.14241027832031,
        "lon": 7.24470853805542,
        "Kategorie": "FH",
        "schoolshort": "FHBE",
        "name": "Berner Fachhochschule BFH - Technik + Informatik",
        "quarter": "Altstadt / Vieille Ville",
        "city": "Unknown City",
        "address": "Rue de la Source / Quellgasse, 2502, ",
        "zipcode": "2502"
    },
    {
        "label": "<i>Schul- und Hochschulareal</i> <b>Berner Fachhochschule, Fachbereich Technik und Informatik</b> (BE) - Bern",
        "lat": 46.96485900878906,
        "lon": 7.456000328063965,
        "Kategorie": "FH",
        "schoolshort": "FHBE",
        "name": "Unknown Amenity",
        "quarter": "Unknown Quarter",
        "city": "Bern",
        "address": "Wankdorffeldstrasse, 3014, Bern",
        "zipcode": "3014"
    },
    {
        "label": "<i>Schul- und Hochschulareal</i> <b>Berner Fachhochschule, Fachbereich Soziale Arbeit</b> (BE) - Bern",
        "lat": 46.952552795410156,
        "lon": 7.434945106506348,
        "Kategorie": "FH",
        "schoolshort": "FHBE",
        "name": "Bibliothek Soziale Arbeit",
        "quarter": "Unknown Quarter",
        "city": "Bern",
        "address": "Hallerstrasse, 3012, Bern",
        "zipcode": "3012"
    },
    {
        "label": "<i>Schul- und Hochschulareal</i> <b>Berner Fachhochschule, Technik und Informatik, Standort Biel</b> (BE) - Biel/Bienne",
        "lat": 47.14277648925781,
        "lon": 7.243814945220947,
        "Kategorie": "FH",
        "schoolshort": "FHBE",
        "name": "Berner Fachhochschule BFH - Technik + Informatik",
        "quarter": "Beaumont/Jutzhubel",
        "city": "Unknown City",
        "address": "La Haute-Route / Höheweg, 2502, ",
        "zipcode": "2502"
    },
    {
        "label": "<i>Schul- und Hochschulareal</i> <b>Berner Fachhochschule, Fachbereich Musik</b> (BE) - Bern",
        "lat": 46.94109344482422,
        "lon": 7.431480407714844,
        "Kategorie": "FH",
        "schoolshort": "FHBE",
        "name": "Unknown Amenity",
        "quarter": "Unknown Quarter",
        "city": "Bern",
        "address": "Eigerplatz, 3007, Bern",
        "zipcode": "3007"
    },
    {
        "label": "<i>Schul- und Hochschulareal</i> <b>Berner Fachhochschule, Elektrotechnik und Informationstechnologie, Standort Burgdorf</b> (BE) - Burgdorf",
        "lat": 47.062015533447266,
        "lon": 7.613674163818359,
        "Kategorie": "FH",
        "schoolshort": "FHBE",
        "name": "Unknown Amenity",
        "quarter": "Im Choser",
        "city": "Unknown City",
        "address": "Jlcoweg, 3400, ",
        "zipcode": "3400"
    },
    {
        "label": "<i><i>Schul Hochschulareal</i></i> <b>Berner Fachhochschule</b> (BE) - Zollikofen",
        "lat": 46.99175262451172,
        "lon": 7.468017101287842,
        "Kategorie": "FH",
        "schoolshort": "FHBE",
        "name": "Unknown Amenity",
        "quarter": "Unknown Quarter",
        "city": "Unknown City",
        "address": "Länggasse, 3052, ",
        "zipcode": "3052"
    },
    {
        "label": "<i>Schul- und Hochschulareal</i> <b>Berner Fachhochschule, Hochschule der Künste, Schweizerisches Literaturinstitut, Standort Biel</b> (BE) - Biel/Bienne",
        "lat": 47.1400032043457,
        "lon": 7.242646217346191,
        "Kategorie": "FH",
        "schoolshort": "FHBE",
        "name": "Unknown Amenity",
        "quarter": "Altstadt / Vieille Ville",
        "city": "Unknown City",
        "address": "Faubourg du Lac / Seevorstadt, 2502, ",
        "zipcode": "2502"
    },
    {
        "label": "<i>Schul- und Hochschulareal</i> <b>Berner Fachhochschule, Architektur, Holz und Bau, Standort Biel</b> (BE) - Biel/Bienne",
        "lat": 47.15830612182617,
        "lon": 7.276848793029785,
        "Kategorie": "FH",
        "schoolshort": "FHBE",
        "name": "Berner Fachhochschule BFH - Architektur, Holz und Bau",
        "quarter": "Boujean/Bözingen",
        "city": "Unknown City",
        "address": "Route de Soleure / Solothurnstrasse, 2504, ",
        "zipcode": "2504"
    },
    {
        "label": "<i><i>Schul Hochschulareal</i></i> <b>Berner Fachhochschule</b> (BE) - Burgdorf",
        "lat": 47.062320709228516,
        "lon": 7.614813804626465,
        "Kategorie": "FH",
        "schoolshort": "FHBE",
        "name": "Berner Fachhochschule Technik und Informatik",
        "quarter": "Im Choser",
        "city": "Unknown City",
        "address": "Jlcoweg, 3400, ",
        "zipcode": "3400"
    },
    {
        "label": "<i>Schul- und Hochschulareal</i> <b>Berner Fachhochschule der Künste, Standort Schwabstrasse</b> (BE) - Bern",
        "lat": 46.94504165649414,
        "lon": 7.393045425415039,
        "Kategorie": "FH",
        "schoolshort": "FHBE",
        "name": "Unknown Amenity",
        "quarter": "Unknown Quarter",
        "city": "Bern",
        "address": "Schwabstrasse, 3018, Bern",
        "zipcode": "3018"
    },
    {
        "label": "<i>Schul- und Hochschulareal</i> <b>Berner Fachhochschule, Technik und Informatik, Standort Biel</b> (BE) - Biel/Bienne",
        "lat": 47.140560150146484,
        "lon": 7.242506980895996,
        "Kategorie": "FH",
        "schoolshort": "FHBE",
        "name": "Unknown Amenity",
        "quarter": "Altstadt / Vieille Ville",
        "city": "Unknown City",
        "address": "Faubourg-du-lac / Seevorstadt, 2502, ",
        "zipcode": "2502"
    },
    {
        "label": "<i>Schul- und Hochschulareal</i> <b>Berner Fachhochschule, Fachbereich Gesundheit</b> (BE) - Bern",
        "lat": 46.94476318359375,
        "lon": 7.4323649406433105,
        "Kategorie": "FH",
        "schoolshort": "FHBE",
        "name": "Berner Fachhochschule BFH, Departement Wirtschaft, Gesundheit, Soziale Arbeit",
        "quarter": "Unknown Quarter",
        "city": "Bern",
        "address": "Haslerstrasse, 3007, Bern",
        "zipcode": "3007"
    },
    {
        "label": "<i>Schul- und Hochschulareal</i> <b>Zürcher Hochschule der Künste ZHdK, Theater der Künste</b> (ZH) - Zürich",
        "lat": 47.37474822998047,
        "lon": 8.53396224975586,
        "Kategorie": "FH",
        "schoolshort": "ZHDK",
        "name": "Unknown Amenity",
        "quarter": "Altstadt",
        "city": "Zürich",
        "address": "Gessnerallee, 8001, Zürich",
        "zipcode": "8001"
    },
    {
        "label": "<i>Schul- und Hochschulareal</i> <b>Fachhochschule Physiotherapie Graubünden Thim van der Laan</b> (GR) - Landquart",
        "lat": 46.95452117919922,
        "lon": 9.559382438659668,
        "Kategorie": "FH",
        "schoolshort": "FHGR",
        "name": "Unknown Amenity",
        "quarter": "Unknown Quarter",
        "city": "Unknown City",
        "address": "Weststrasse, 7302, ",
        "zipcode": "7302"
    },
    {
        "label": "<i>Bus</i> <b>Chur, Ringstrasse FHGR</b>",
        "lat": 46.85331344604492,
        "lon": 9.512577056884766,
        "Kategorie": "FH",
        "schoolshort": "FHGR",
        "name": "Unknown Amenity",
        "quarter": "Unknown Quarter",
        "city": "Unknown City",
        "address": "Pulvermühlestrasse, 7004, ",
        "zipcode": "7004"
    }
]